station_cd,station_g_cd,station_name,station_name_k,station_name_r,line_cd,pref_cd,post,add,lon,lat,open_ymd,close_ymd,e_status,e_sort
1110101,1110101,函館,,,11101,1,040-0063,,140.726413,41.773709,1902-12-10,0000-00-00,0,1110101
1110102,1110102,五稜郭,,,11101,1,041-0813,,140.733539,41.803557,0000-00-00,0000-00-00,0,1110102
1110103,1110103,桔梗,,,11101,1,041-0801,,140.722952,41.846457,1902-12-10,0000-00-00,0,1110103
1110104,1110104,大中山,,,11101,1,041-1121,,140.71358,41.864641,0000-00-00,0000-00-00,0,1110104
1110105,1110105,七飯,,,11101,1,041-1111,,140.688556,41.886971,0000-00-00,0000-00-00,0,1110105
1110106,1110106,新函館北斗,,,11101,1,041-1242,,140.646525,41.9054,1902-12-10,0000-00-00,0,1110106
1110107,1110107,仁山,,,11101,1,041-1101,,140.635183,41.930011,0000-00-00,0000-00-00,0,1110107
1110108,1110108,大沼,,,11101,1,041-1354,,140.669347,41.971954,1903-06-28,0000-00-00,0,1110108
1110109,1110109,大沼公園,,,11101,1,041-1354,,140.669758,41.980958,1907-06-05,0000-00-00,0,1110109
1110110,1110110,赤井川,,,11101,1,049-2142,,140.642678,42.003267,0000-00-00,0000-00-00,0,1110110
1110111,1110111,駒ケ岳,,,11101,1,049-2300,,140.610476,42.038809,0000-00-00,0000-00-00,0,1110111
1110112,1110112,東山,,,11101,1,049-2141,,140.605222,42.06172,1943-02-26,2017-03-04,2,1110112
1110113,1110113,姫川,,,11101,1,049-2306,,140.591632,42.081312,1951-05-19,2017-03-04,2,1110113
1110114,1110114,池田園,,,11101,1,041-1352,,140.700333,41.990692,0000-00-00,0000-00-00,0,1110114
1110115,1110115,流山温泉,,,11101,1,041-1351,,140.716358,42.003483,0000-00-00,0000-00-00,0,1110115
1110116,1110116,銚子口,,,11101,1,041-1351,,140.720656,42.015471,0000-00-00,0000-00-00,0,1110116
1110117,1110117,鹿部,,,11101,1,041-1404,,140.771393,42.06439,0000-00-00,0000-00-00,0,1110117
1110118,1110118,渡島沼尻,,,11101,1,049-2223,,140.747596,42.10706,0000-00-00,0000-00-00,0,1110118
1110119,1110119,渡島砂原,,,11101,1,049-2222,,140.689451,42.12164,0000-00-00,0000-00-00,0,1110119
1110120,1110120,掛澗,,,11101,1,049-2221,,140.64598,42.119205,0000-00-00,0000-00-00,0,1110120
1110121,1110121,尾白内,,,11101,1,049-2301,,140.613449,42.111232,0000-00-00,0000-00-00,0,1110121
1110122,1110122,東森,,,11101,1,049-2302,,140.59353,42.106823,0000-00-00,0000-00-00,0,1110122
1110123,1110123,森,,,11101,1,049-2325,,140.573846,42.108917,0000-00-00,0000-00-00,0,1110123
1110124,1110124,桂川,,,11101,1,049-2321,,140.5427876,42.1156004,1944-09-30,2017-03-04,2,1110124
1110125,1110125,石谷,,,11101,1,049-2464,,140.506525,42.135519,0000-00-00,0000-00-00,0,1110125
1110126,1110126,本石倉,,,11101,1,049-2463,,140.471957,42.159668,0000-00-00,0000-00-00,0,1110126
1110127,1110127,石倉,,,11101,1,049-2463,,140.458436,42.17285,0000-00-00,0000-00-00,0,1110127
1110128,1110128,落部,,,11101,1,049-2562,,140.420755,42.187617,0000-00-00,0000-00-00,0,1110128
1110129,1110129,野田生,,,11101,1,049-2672,,140.37586,42.217104,0000-00-00,0000-00-00,0,1110129
1110130,1110130,山越,,,11101,1,049-2671,,140.326593,42.231172,0000-00-00,0000-00-00,0,1110130
1110131,1110131,八雲,,,11101,1,049-3107,,140.273342,42.253391,0000-00-00,0000-00-00,0,1110131
1110132,1110132,鷲ノ巣,,,11101,1,049-3122,,140.269919,42.278389,1987-04-01,2016-03-26,2,1110132
1110133,1110133,山崎,,,11101,1,049-3342,,140.2746,42.314635,0000-00-00,0000-00-00,0,1110133
1110134,1110134,黒岩,,,11101,1,049-3341,,140.288173,42.368296,0000-00-00,0000-00-00,0,1110134
1110135,1110135,北豊津,,,11101,1,049-3464,,140.297868,42.400969,1944-07-01,2017-03-04,2,1110135
1110136,1110136,国縫,,,11101,1,049-3462,,140.320885,42.439319,0000-00-00,0000-00-00,0,1110136
1110137,1110137,中ノ沢,,,11101,1,049-3512,,140.346077,42.477928,0000-00-00,0000-00-00,0,1110137
1110138,1110138,長万部,,,11101,1,049-3521,,140.37507,42.512477,1903-11-03,0000-00-00,0,1110138
1110201,1110138,長万部,,,11102,1,049-3521,,140.37507,42.512477,0000-00-00,0000-00-00,0,1110201
1110202,1110202,二股,,,11102,1,049-3501,,140.320821,42.575869,0000-00-00,0000-00-00,0,1110202
1110203,1110203,蕨岱,,,11102,1,049-3503,,140.313353,42.626353,1904-10-15,2017-03-04,2,1110203
1110204,1110204,黒松内,,,11102,1,048-0101,,140.305704,42.669608,0000-00-00,0000-00-00,0,1110204
1110205,1110205,熱郛,,,11102,1,048-0134,,140.375084,42.675653,0000-00-00,0000-00-00,0,1110205
1110206,1110206,目名,,,11102,1,048-1261,,140.465742,42.761432,0000-00-00,0000-00-00,0,1110206
1110207,1110207,蘭越,,,11102,1,048-1301,,140.52894,42.804542,0000-00-00,0000-00-00,0,1110207
1110208,1110208,昆布,,,11102,1,048-1302,,140.596107,42.797984,0000-00-00,0000-00-00,0,1110208
1110209,1110209,ニセコ,,,11102,1,048-1512,,140.684588,42.808746,0000-00-00,0000-00-00,0,1110209
1110210,1110210,比羅夫,,,11102,1,044-0077,,140.722615,42.84856,0000-00-00,0000-00-00,0,1110210
1110211,1110211,倶知安,,,11102,1,044-0051,,140.745471,42.90164,0000-00-00,0000-00-00,0,1110211
1110212,1110212,小沢,,,11102,1,048-2142,,140.677657,42.97185,0000-00-00,0000-00-00,0,1110212
1110213,1110213,銀山,,,11102,1,048-2335,,140.715321,43.040888,0000-00-00,0000-00-00,0,1110213
1110214,1110214,然別,,,11102,1,048-2403,,140.737211,43.12551,0000-00-00,0000-00-00,0,1110214
1110215,1110215,仁木,,,11102,1,048-2405,,140.770546,43.154091,0000-00-00,0000-00-00,0,1110215
1110216,1110216,余市,,,11102,1,046-0003,,140.794686,43.186558,0000-00-00,0000-00-00,0,1110216
1110217,1110217,蘭島,,,11102,1,048-2562,,140.854643,43.19651,0000-00-00,0000-00-00,0,1110217
1110218,1110218,塩谷,,,11102,1,048-2672,,140.924546,43.202406,0000-00-00,0000-00-00,0,1110218
1110219,1110219,小樽,,,11102,1,047-0032,,140.993653,43.197172,0000-00-00,0000-00-00,0,1110219
1110301,1110219,小樽,,,11103,1,047-0032,,140.993653,43.197172,0000-00-00,0000-00-00,0,1110301
1110302,1110302,南小樽,,,11103,1,047-0015,,141.007883,43.186529,0000-00-00,0000-00-00,0,1110302
1110303,1110303,小樽築港,,,11103,1,047-0008,,141.029051,43.180752,0000-00-00,0000-00-00,0,1110303
1110304,1110304,朝里,,,11103,1,047-0151,,141.063923,43.176868,0000-00-00,0000-00-00,0,1110304
1110305,1110305,銭函,,,11103,1,047-0261,,141.159868,43.143403,0000-00-00,0000-00-00,0,1110305
1110306,1110306,ほしみ,,,11103,1,006-0859,,141.191402,43.13373,0000-00-00,0000-00-00,0,1110306
1110307,1110307,星置,,,11103,1,006-0851,,141.210856,43.132375,0000-00-00,0000-00-00,0,1110307
1110308,1110308,稲穂,,,11103,1,006-0831,,141.222919,43.128115,0000-00-00,0000-00-00,0,1110308
1110309,1110309,手稲,,,11103,1,006-0021,,141.243785,43.120238,0000-00-00,0000-00-00,0,1110309
1110310,1110310,稲積公園,,,11103,1,006-0011,,141.257113,43.112023,0000-00-00,0000-00-00,0,1110310
1110311,1110311,発寒,,,11103,1,063-0829,,141.277273,43.099819,0000-00-00,0000-00-00,0,1110311
1110312,1110312,発寒中央,,,11103,1,063-0826,,141.294497,43.089271,0000-00-00,0000-00-00,0,1110312
1110313,1110313,琴似,,,11103,1,063-0812,,141.307418,43.081599,0000-00-00,0000-00-00,0,1110313
1110314,1110314,桑園,,,11103,1,060-0011,,141.332036,43.070744,0000-00-00,0000-00-00,0,1110314
1110315,1110315,札幌,,,11103,1,060-0806,,141.350768,43.068612,0000-00-00,0000-00-00,0,1110315
1110316,1110316,苗穂,,,11103,1,060-0033,,141.377522,43.068574,0000-00-00,0000-00-00,0,1110316
1110317,1110317,白石,,,11103,1,003-0029,,141.413612,43.054715,1903-04-21,0000-00-00,0,1110317
1110318,1110318,厚別,,,11103,1,004-0055,,141.46369,43.045154,0000-00-00,0000-00-00,0,1110318
1110319,1110319,森林公園,,,11103,1,004-0071,,141.481332,43.056456,0000-00-00,0000-00-00,0,1110319
1110320,1110320,大麻,,,11103,1,069-0854,,141.496925,43.072382,0000-00-00,0000-00-00,0,1110320
1110321,1110321,野幌,,,11103,1,069-0813,,141.52984,43.092559,0000-00-00,0000-00-00,0,1110321
1110322,1110322,高砂,,,11103,1,067-0074,,141.540752,43.100084,0000-00-00,0000-00-00,0,1110322
1110323,1110323,江別,,,11103,1,067-0071,,141.55679,43.110189,0000-00-00,0000-00-00,0,1110323
1110324,1110324,豊幌,,,11103,1,067-0021,,141.62466,43.136446,0000-00-00,0000-00-00,0,1110324
1110325,1110325,幌向,,,11103,1,069-0371,,141.655839,43.151348,0000-00-00,0000-00-00,0,1110325
1110326,1110326,上幌向,,,11103,1,069-0362,,141.715391,43.18183,0000-00-00,0000-00-00,0,1110326
1110327,1110327,岩見沢,,,11103,1,068-0034,,141.759359,43.204201,0000-00-00,0000-00-00,0,1110327
1110328,1110328,峰延,,,11103,1,072-0000,,141.814673,43.264694,0000-00-00,0000-00-00,0,1110328
1110329,1110329,光珠内,,,11103,1,072-0000,,141.844655,43.292658,0000-00-00,0000-00-00,0,1110329
1110330,1110330,美唄,,,11103,1,072-0012,,141.862157,43.330751,0000-00-00,0000-00-00,0,1110330
1110331,1110331,茶志内,,,11103,1,079-0261,,141.87336,43.369842,0000-00-00,0000-00-00,0,1110331
1110332,1110332,奈井江,,,11103,1,079-0313,,141.889115,43.423718,0000-00-00,0000-00-00,0,1110332
1110333,1110333,豊沼,,,11103,1,073-0138,,141.901032,43.464224,0000-00-00,0000-00-00,0,1110333
1110334,1110334,砂川,,,11103,1,073-0152,,141.909642,43.493468,0000-00-00,0000-00-00,0,1110334
1110335,1110335,滝川,,,11103,1,073-0031,,141.900807,43.555278,0000-00-00,0000-00-00,0,1110335
1110336,1110336,江部乙,,,11103,1,079-0462,,141.935937,43.627564,0000-00-00,0000-00-00,0,1110336
1110337,1110337,妹背牛,,,11103,1,079-0500,,141.966591,43.690841,0000-00-00,0000-00-00,0,1110337
1110338,1110338,深川,,,11103,1,074-0001,,142.041642,43.721021,0000-00-00,0000-00-00,0,1110338
1110339,1110339,納内,,,11103,1,078-0151,,142.130072,43.732509,0000-00-00,0000-00-00,0,1110339
1110340,1110340,伊納,,,11103,1,070-8052,,142.27167,43.763305,0000-00-00,0000-00-00,0,1110340
1110341,1110341,近文,,,11103,1,070-0821,,142.325327,43.789193,0000-00-00,0000-00-00,0,1110341
1110342,1110342,旭川,,,11103,1,070-0030,,142.357803,43.763492,0000-00-00,0000-00-00,0,1110342
1110401,1110138,長万部,,,11104,1,049-3521,,140.37507,42.512477,0000-00-00,0000-00-00,0,1110401
1110402,1110402,静狩,,,11104,1,049-5141,,140.460025,42.584065,0000-00-00,0000-00-00,0,1110402
1110403,1110403,小幌,,,11104,1,049-5333,,140.537361,42.589731,0000-00-00,0000-00-00,0,1110403
1110404,1110404,礼文,,,11104,1,049-5333,,140.595013,42.580422,0000-00-00,0000-00-00,0,1110404
1110405,1110405,大岸,,,11104,1,049-5332,,140.639036,42.585969,0000-00-00,0000-00-00,0,1110405
1110406,1110406,豊浦,,,11104,1,049-5412,,140.71536,42.580323,0000-00-00,0000-00-00,0,1110406
1110407,1110407,洞爺,,,11104,1,049-5611,,140.763959,42.55055,0000-00-00,0000-00-00,0,1110407
1110408,1110408,有珠,,,11104,1,059-0151,,140.793969,42.513267,0000-00-00,0000-00-00,0,1110408
1110409,1110409,長和,,,11104,1,052-0035,,140.833783,42.488262,0000-00-00,0000-00-00,0,1110409
1110410,1110410,伊達紋別,,,11104,1,052-0032,,140.855802,42.469395,0000-00-00,0000-00-00,0,1110410
1110411,1110411,北舟岡,,,11104,1,052-0014,,140.880259,42.450528,0000-00-00,0000-00-00,0,1110411
1110412,1110412,稀府,,,11104,1,059-0273,,140.898836,42.425567,0000-00-00,0000-00-00,0,1110412
1110413,1110413,黄金,,,11104,1,059-0271,,140.907781,42.386441,0000-00-00,0000-00-00,0,1110413
1110414,1110414,崎守,,,11104,1,050-0055,,140.927141,42.373968,0000-00-00,0000-00-00,0,1110414
1110415,1110415,本輪西,,,11104,1,050-0065,,140.977561,42.358734,0000-00-00,0000-00-00,0,1110415
1110416,1110416,室蘭,,,11104,1,051-0023,,140.97571,42.317864,0000-00-00,0000-00-00,0,1110416
1110417,1110417,母恋,,,11104,1,051-0004,,140.990018,42.317295,0000-00-00,0000-00-00,0,1110417
1110418,1110418,御崎,,,11104,1,051-0001,,140.993881,42.329014,0000-00-00,0000-00-00,0,1110418
1110419,1110419,輪西,,,11104,1,050-0087,,141.005743,42.333775,0000-00-00,0000-00-00,0,1110419
1110420,1110420,東室蘭,,,11104,1,050-0083,,141.026411,42.349374,0000-00-00,0000-00-00,0,1110420
1110421,1110421,鷲別,,,11104,1,059-0034,,141.042759,42.35953,0000-00-00,0000-00-00,0,1110421
1110422,1110422,幌別,,,11104,1,059-0013,,141.107293,42.409782,0000-00-00,0000-00-00,0,1110422
1110423,1110423,富浦,,,11104,1,059-0462,,141.156878,42.441957,0000-00-00,0000-00-00,0,1110423
1110424,1110424,登別,,,11104,1,059-0466,,141.180931,42.45207,0000-00-00,0000-00-00,0,1110424
1110425,1110425,虎杖浜,,,11104,1,059-0641,,141.215092,42.464695,0000-00-00,0000-00-00,0,1110425
1110426,1110426,竹浦,,,11104,1,059-0642,,141.260395,42.49284,0000-00-00,0000-00-00,0,1110426
1110427,1110427,北吉原,,,11104,1,059-0923,,141.286199,42.509119,0000-00-00,0000-00-00,0,1110427
1110428,1110428,萩野,,,11104,1,059-0922,,141.30603,42.521159,0000-00-00,0000-00-00,0,1110428
1110429,1110429,白老,,,11104,1,059-0904,,141.360054,42.55474,0000-00-00,0000-00-00,0,1110429
1110430,1110430,社台,,,11104,1,059-0901,,141.417433,42.578682,0000-00-00,0000-00-00,0,1110430
1110431,1110431,錦岡,,,11104,1,059-1275,,141.48722,42.6025,0000-00-00,0000-00-00,0,1110431
1110432,1110432,糸井,,,11104,1,053-0816,,141.546187,42.6225,0000-00-00,0000-00-00,0,1110432
1110433,1110433,青葉,,,11104,1,053-0807,,141.568278,42.62999,0000-00-00,0000-00-00,0,1110433
1110434,1110434,苫小牧,,,11104,1,053-0022,,141.596837,42.639665,0000-00-00,0000-00-00,0,1110434
1110501,1110434,苫小牧,,,11105,1,053-0022,,141.596837,42.639665,0000-00-00,0000-00-00,0,1110501
1110502,1110502,沼ノ端,,,11105,1,059-1364,,141.693132,42.672057,0000-00-00,0000-00-00,0,1110502
1110503,1110503,遠浅,,,11105,1,059-1433,,141.769568,42.729533,0000-00-00,0000-00-00,0,1110503
1110504,1110504,早来,,,11105,1,059-1501,,141.814106,42.765237,0000-00-00,0000-00-00,0,1110504
1110505,1110505,安平,,,11105,1,059-1511,,141.825283,42.814007,0000-00-00,0000-00-00,0,1110505
1110506,1110506,追分,,,11105,1,059-1931,,141.810678,42.873316,0000-00-00,0000-00-00,0,1110506
1110507,1110507,三川,,,11105,1,069-1200,,141.800778,42.945029,0000-00-00,0000-00-00,0,1110507
1110508,1110508,古山,,,11105,1,069-1216,,141.793969,42.975256,0000-00-00,0000-00-00,0,1110508
1110509,1110509,由仁,,,11105,1,069-1216,,141.785868,43.012206,0000-00-00,0000-00-00,0,1110509
1110510,1110510,栗山,,,11105,1,069-1511,,141.775603,43.058164,0000-00-00,0000-00-00,0,1110510
1110511,1110511,栗丘,,,11105,1,068-0134,,141.744333,43.085444,0000-00-00,0000-00-00,0,1110511
1110512,1110512,栗沢,,,11105,1,068-0127,,141.739743,43.120367,0000-00-00,0000-00-00,0,1110512
1110513,1110513,志文,,,11105,1,068-0841,,141.744443,43.158903,0000-00-00,0000-00-00,0,1110513
1110514,1110327,岩見沢,,,11105,1,068-0034,,141.759359,43.204201,0000-00-00,0000-00-00,0,1110514
1110601,1110335,滝川,,,11106,1,073-0031,,141.900807,43.555278,0000-00-00,0000-00-00,0,1110601
1110602,1110602,東滝川,,,11106,1,073-0026,,141.98031,43.574037,0000-00-00,0000-00-00,0,1110602
1110603,1110603,赤平,,,11106,1,079-1134,,142.048669,43.555144,0000-00-00,0000-00-00,0,1110603
1110604,1110604,茂尻,,,11106,1,079-1100,,142.082156,43.537314,0000-00-00,0000-00-00,0,1110604
1110605,1110605,平岸,,,11106,1,079-1282,,142.123872,43.541401,0000-00-00,0000-00-00,0,1110605
1110606,1110606,芦別,,,11106,1,075-0041,,142.184543,43.516636,0000-00-00,0000-00-00,0,1110606
1110607,1110607,上芦別,,,11106,1,079-1371,,142.210855,43.48871,0000-00-00,0000-00-00,0,1110607
1110608,1110608,野花南,,,11106,1,079-1372,,142.261772,43.474418,0000-00-00,0000-00-00,0,1110608
1110609,1110609,島ノ下,,,11106,1,076-0036,,142.350406,43.3744,1913-11-10,2017-03-04,2,1110609
1110610,1110610,富良野,,,11106,1,076-0025,,142.391374,43.347114,0000-00-00,0000-00-00,0,1110610
1110611,1110611,布部,,,11106,1,076-0004,,142.400595,43.291991,0000-00-00,0000-00-00,0,1110611
1110612,1110612,山部,,,11106,1,079-1564,,142.381522,43.244645,0000-00-00,0000-00-00,0,1110612
1110613,1110613,下金山,,,11106,1,079-2132,,142.415402,43.197328,0000-00-00,0000-00-00,0,1110613
1110614,1110614,金山,,,11106,1,079-2131,,142.416201,43.136115,0000-00-00,0000-00-00,0,1110614
1110615,1110615,東鹿越,,,11106,1,079-2411,,142.523472,43.164011,0000-00-00,0000-00-00,0,1110615
1110616,1110616,幾寅,,,11106,1,079-2401,,142.569474,43.161582,0000-00-00,0000-00-00,0,1110616
1110617,1110617,落合,,,11106,1,079-2551,,142.669104,43.125055,0000-00-00,0000-00-00,0,1110617
1110618,1110618,新得,,,11106,1,081-0005,,142.832432,43.082501,0000-00-00,0000-00-00,0,1110618
1110701,1110618,新得,,,11107,1,081-0005,,142.832432,43.082501,0000-00-00,0000-00-00,0,1110701
1110702,1110702,十勝清水,,,11107,1,089-0136,,142.879535,43.012892,0000-00-00,0000-00-00,0,1110702
1110703,1110703,羽帯,,,11107,1,089-0356,,142.906646,42.957499,1958-09-10,2018-03-17,2,1110703
1110704,1110704,御影,,,11107,1,089-0354,,142.935739,42.942418,0000-00-00,0000-00-00,0,1110704
1110705,1110705,芽室,,,11107,1,082-0030,,143.047991,42.909846,0000-00-00,0000-00-00,0,1110705
1110706,1110706,大成,,,11107,1,082-0006,,143.0696659,42.91605619,0000-00-00,0000-00-00,0,1110706
1110707,1110707,西帯広,,,11107,1,080-2473,,143.126351,42.923941,0000-00-00,0000-00-00,0,1110707
1110708,1110708,柏林台,,,11107,1,080-0027,,143.1645,42.928877,0000-00-00,0000-00-00,0,1110708
1110709,1110709,帯広,,,11107,1,080-0012,,143.20195,42.917997,0000-00-00,0000-00-00,0,1110709
1110710,1110710,札内,,,11107,1,089-0543,,143.256248,42.912697,0000-00-00,0000-00-00,0,1110710
1110711,1110711,稲士別,,,11107,1,089-0564,,143.297528,42.903963,1959-10-07,2017-03-04,2,1110711
1110712,1110712,幕別,,,11107,1,089-0604,,143.359293,42.90784,0000-00-00,0000-00-00,0,1110712
1110713,1110713,利別,,,11107,1,083-0031,,143.424445,42.934706,0000-00-00,0000-00-00,0,1110713
1110714,1110714,池田,,,11107,1,083-0091,,143.453033,42.922186,0000-00-00,0000-00-00,0,1110714
1110715,1110715,十弗,,,11107,1,089-5243,,143.500797,42.855781,0000-00-00,0000-00-00,0,1110715
1110716,1110716,豊頃,,,11107,1,089-5232,,143.538615,42.817548,0000-00-00,0000-00-00,0,1110716
1110717,1110717,新吉野,,,11107,1,089-5541,,143.60826,42.778238,0000-00-00,0000-00-00,0,1110717
1110718,1110718,浦幌,,,11107,1,089-5603,,143.651568,42.810849,0000-00-00,0000-00-00,0,1110718
1110719,1110719,上厚内,,,11107,1,089-5866,,143.749788,42.831881,1910-12-01,2017-03-04,2,1110719
1110720,1110720,厚内,,,11107,1,089-5865,,143.814389,42.809539,0000-00-00,0000-00-00,0,1110720
1110721,1110721,直別,,,11107,1,088-0135,,143.863607,42.852205,1907-10-25,2019-03-16,2,1110721
1110722,1110722,尺別,,,11107,1,088-0132,,143.904331,42.869163,1920-01-22,2019-03-16,2,1110722
1110723,1110723,音別,,,11107,1,088-0115,,143.932442,42.888997,0000-00-00,0000-00-00,0,1110723
1110724,1110724,古瀬,,,11107,1,088-0351,,144.008589,42.947893,1954-07-01,2020-03-14,2,1110724
1110725,1110725,白糠,,,11107,1,088-0301,,144.076879,42.956161,0000-00-00,0000-00-00,0,1110725
1110726,1110726,西庶路,,,11107,1,088-0572,,144.129826,42.976138,0000-00-00,0000-00-00,0,1110726
1110727,1110727,庶路,,,11107,1,088-0563,,144.150018,42.983601,0000-00-00,0000-00-00,0,1110727
1110728,1110728,大楽毛,,,11107,1,084-0917,,144.273879,43.009078,0000-00-00,0000-00-00,0,1110728
1110729,1110729,新大楽毛,,,11107,1,084-0917,,144.295558,43.009423,0000-00-00,0000-00-00,0,1110729
1110730,1110730,新富士,,,11107,1,084-0904,,144.350758,43.001605,0000-00-00,0000-00-00,0,1110730
1110731,1110731,釧路,,,11107,1,085-0015,,144.381983,42.990584,0000-00-00,0000-00-00,0,1110731
1110801,1110731,釧路,,,11108,1,085-0015,,144.381983,42.990584,0000-00-00,0000-00-00,0,1110801
1110802,1110802,東釧路,,,11108,1,085-0816,,144.411307,42.995207,0000-00-00,0000-00-00,0,1110802
1110803,1110803,武佐,,,11108,1,085-0806,,144.426681,42.991364,0000-00-00,0000-00-00,0,1110803
1110804,1110804,別保,,,11108,1,088-0604,,144.469596,42.994384,0000-00-00,0000-00-00,0,1110804
1110805,1110805,上尾幌,,,11108,1,088-0771,,144.61239,43.032893,0000-00-00,0000-00-00,0,1110805
1110806,1110806,尾幌,,,11108,1,088-0875,,144.703758,43.018463,0000-00-00,0000-00-00,0,1110806
1110807,1110807,門静,,,11108,1,088-1126,,144.782638,43.057581,0000-00-00,0000-00-00,0,1110807
1110808,1110808,厚岸,,,11108,1,088-1124,,144.841355,43.056248,0000-00-00,0000-00-00,0,1110808
1110809,1110809,糸魚沢,,,11108,1,088-1101,,144.92545,43.103506,0000-00-00,0000-00-00,0,1110809
1110810,1110810,茶内,,,11108,1,088-1500,,145.02801,43.129266,0000-00-00,0000-00-00,0,1110810
1110811,1110811,浜中,,,11108,1,088-1500,,145.099657,43.15754,0000-00-00,0000-00-00,0,1110811
1110812,1110812,姉別,,,11108,1,088-1500,,145.194716,43.196201,0000-00-00,0000-00-00,0,1110812
1110813,1110813,厚床,,,11108,1,086-0064,,145.252096,43.228224,0000-00-00,0000-00-00,0,1110813
1110814,1110814,初田牛,,,11108,1,086-0076,,145.32277,43.204542,1920-11-10,2019-03-16,2,1110814
1110815,1110815,別当賀,,,11108,1,086-0075,,145.423593,43.218427,0000-00-00,0000-00-00,0,1110815
1110816,1110816,落石,,,11108,1,088-1782,,145.519449,43.198335,0000-00-00,0000-00-00,0,1110816
1110817,1110817,昆布盛,,,11108,1,088-1784,,145.542444,43.228593,0000-00-00,0000-00-00,0,1110817
1110818,1110818,西和田,,,11108,1,087-0033,,145.541817,43.268043,0000-00-00,0000-00-00,0,1110818
1110819,1110819,花咲,,,11108,1,087-0032,,145.575045,43.295388,1921-08-05,2016-03-26,2,1110819
1110820,1110820,東根室,,,11108,1,087-0004,,145.597234,43.323655,0000-00-00,0000-00-00,0,1110820
1110821,1110821,根室,,,11108,1,087-0027,,145.582707,43.326923,0000-00-00,0000-00-00,0,1110821
1110901,1110434,苫小牧,,,11109,1,053-0022,,141.596837,42.639665,0000-00-00,0000-00-00,0,1110901
1110902,1110502,沼ノ端,,,11109,1,059-1364,,141.693132,42.672057,0000-00-00,0000-00-00,0,1110902
1110903,1110903,植苗,,,11109,1,059-1365,,141.735344,42.713645,0000-00-00,0000-00-00,0,1110903
1110904,1110904,美々,,,11109,1,066-0012,,141.711387,42.777418,1926-08-21,2017-03-04,2,1110904
1110905,1110905,新千歳空港,,,11109,1,066-0012,,141.680823,42.787546,0000-00-00,0000-00-00,0,1110905
1110906,1110906,南千歳,,,11109,1,066-0044,,141.675388,42.80804,0000-00-00,0000-00-00,0,1110906
1110907,1110907,千歳,,,11109,1,066-0062,,141.651934,42.82811,0000-00-00,0000-00-00,0,1110907
1110908,1110908,長都,,,11109,1,066-0077,,141.622987,42.852178,0000-00-00,0000-00-00,0,1110908
1110909,1110909,サッポロビール庭園,,,11109,1,061-1405,,141.605616,42.866812,0000-00-00,0000-00-00,0,1110909
1110910,1110910,恵庭,,,11109,1,061-1448,,141.586234,42.883076,0000-00-00,0000-00-00,0,1110910
1110911,1110911,恵み野,,,11109,1,061-1373,,141.574429,42.902704,0000-00-00,0000-00-00,0,1110911
1110912,1110912,島松,,,11109,1,061-1352,,141.573117,42.922504,0000-00-00,0000-00-00,0,1110912
1110913,1110913,北広島,,,11109,1,061-1121,,141.563115,42.979239,0000-00-00,0000-00-00,0,1110913
1110914,1110914,上野幌,,,11109,1,004-0039,,141.487317,43.016177,0000-00-00,0000-00-00,0,1110914
1110915,1110915,新札幌,,,11109,1,004-0052,,141.47237,43.038732,0000-00-00,0000-00-00,0,1110915
1110916,1110916,平和,,,11109,1,003-0029,,141.437967,43.04695,0000-00-00,0000-00-00,0,1110916
1110917,1110317,白石,,,11109,1,003-0029,,141.413612,43.054715,1903-04-21,0000-00-00,0,1110917
1110918,1110316,苗穂,,,11109,1,060-0033,,141.377522,43.068574,0000-00-00,0000-00-00,0,1110918
1110919,1110315,札幌,,,11109,1,060-0806,,141.350768,43.068612,0000-00-00,0000-00-00,0,1110919
1111001,1110906,南千歳,,,11110,1,066-0044,,141.675388,42.80804,0000-00-00,0000-00-00,0,1111001
1111002,1110506,追分,,,11110,1,059-1931,,141.810678,42.873316,0000-00-00,0000-00-00,0,1111002
1111003,1111003,東追分,,,11110,1,059-1984,,141.83228,42.902377,1965-03-01,2016-03-26,2,1111003
1111004,1111004,川端,,,11110,1,069-1141,,141.894791,42.914721,0000-00-00,0000-00-00,0,1111004
1111005,1111005,滝ノ上,,,11110,1,068-0756,,141.97628,42.910244,0000-00-00,0000-00-00,0,1111005
1111006,1111006,十三里,,,11110,1,068-0755,,142.024478,42.914667,1962-12-25,2016-03-26,2,1111006
1111007,1111007,新夕張,,,11110,1,068-0755,,142.03657,42.936611,0000-00-00,0000-00-00,0,1111007
1111008,1111008,沼ノ沢,,,11110,1,068-0751,,142.030836,42.957586,0000-00-00,2019-04-01,2,1111008
1111009,1111009,南清水沢,,,11110,1,068-0536,,142.006597,42.985272,0000-00-00,2019-04-01,2,1111009
1111010,1111010,清水沢,,,11110,1,068-0531,,142.007285,42.99827,0000-00-00,2019-04-01,2,1111010
1111011,1111011,鹿ノ谷,,,11110,1,068-0413,,141.964476,43.039447,0000-00-00,2019-04-01,2,1111011
1111012,1111012,夕張,,,11110,1,068-0411,,141.967472,43.050926,0000-00-00,2019-04-01,2,1111012
1111013,1111013,占冠,,,11110,1,079-2202,,142.400078,42.993088,0000-00-00,0000-00-00,0,1111013
1111014,1111014,トマム,,,11110,1,079-2204,,142.610937,43.055913,0000-00-00,0000-00-00,0,1111014
1111015,1110618,新得,,,11110,1,081-0005,,142.832432,43.082501,0000-00-00,0000-00-00,0,1111015
1111101,1110434,苫小牧,,,11111,1,053-0022,,141.596837,42.639665,0000-00-00,0000-00-00,0,1111101
1111102,1111102,勇払,,,11111,1,059-1372,,141.727667,42.632805,0000-00-00,0000-00-00,0,1111102
1111103,1111103,浜厚真,,,11111,1,059-1742,,141.837071,42.606725,0000-00-00,0000-00-00,0,1111103
1111104,1111104,浜田浦,,,11111,1,054-0004,,141.88362,42.590722,0000-00-00,0000-00-00,0,1111104
1111105,1111105,鵡川,,,11111,1,054-0023,,141.923892,42.578953,0000-00-00,0000-00-00,0,1111105
1111106,1111106,汐見,,,11111,1,054-0015,,141.945255,42.550235,0000-00-00,0000-00-00,0,1111106
1111107,1111107,富川,,,11111,1,055-0006,,142.020855,42.516865,0000-00-00,0000-00-00,0,1111107
1111108,1111108,日高門別,,,11111,1,059-2121,,142.072692,42.481237,0000-00-00,0000-00-00,0,1111108
1111109,1111109,豊郷,,,11111,1,059-2126,,142.122493,42.470119,0000-00-00,0000-00-00,0,1111109
1111110,1111110,清畠,,,11111,1,059-2245,,142.176624,42.455709,0000-00-00,0000-00-00,0,1111110
1111111,1111111,厚賀,,,11111,1,059-2243,,142.215896,42.430507,0000-00-00,0000-00-00,0,1111111
1111112,1111112,大狩部,,,11111,1,059-2253,,142.259355,42.395695,0000-00-00,0000-00-00,0,1111112
1111113,1111113,節婦,,,11111,1,059-2412,,142.275541,42.38248,0000-00-00,0000-00-00,0,1111113
1111114,1111114,新冠,,,11111,1,059-2400,,142.312585,42.360667,0000-00-00,0000-00-00,0,1111114
1111115,1111115,静内,,,11111,1,056-0016,,142.360402,42.336559,0000-00-00,0000-00-00,0,1111115
1111116,1111116,静内海水浴場,,,11111,1,056-0011,,142.400665,42.314084,0000-00-00,0000-00-00,2,1111116
1111117,1111117,東静内,,,11111,1,059-2561,,142.450485,42.304416,0000-00-00,0000-00-00,0,1111117
1111118,1111118,春立,,,11111,1,059-2565,,142.498943,42.268515,0000-00-00,0000-00-00,0,1111118
1111119,1111119,日高東別,,,11111,1,059-2566,,142.521371,42.280837,0000-00-00,0000-00-00,0,1111119
1111120,1111120,日高三石,,,11111,1,059-3107,,142.566859,42.247269,0000-00-00,0000-00-00,0,1111120
1111121,1111121,蓬栄,,,11111,1,059-3104,,142.604517,42.264636,0000-00-00,0000-00-00,0,1111121
1111122,1111122,本桐,,,11111,1,059-3231,,142.630455,42.248205,0000-00-00,0000-00-00,0,1111122
1111123,1111123,荻伏,,,11111,1,059-3451,,142.689432,42.206136,0000-00-00,0000-00-00,0,1111123
1111124,1111124,絵笛,,,11111,1,057-0036,,142.736134,42.198428,0000-00-00,0000-00-00,0,1111124
1111125,1111125,浦河,,,11111,1,057-0022,,142.769976,42.168366,0000-00-00,0000-00-00,0,1111125
1111126,1111126,東町,,,11111,1,057-0005,,142.788931,42.156037,0000-00-00,0000-00-00,0,1111126
1111127,1111127,日高幌別,,,11111,1,057-0002,,142.834519,42.142338,0000-00-00,0000-00-00,0,1111127
1111128,1111128,鵜苫,,,11111,1,058-0033,,142.882513,42.134449,0000-00-00,0000-00-00,0,1111128
1111129,1111129,西様似,,,11111,1,058-0032,,142.908737,42.138411,0000-00-00,0000-00-00,0,1111129
1111130,1111130,様似,,,11111,1,058-0014,,142.93596,42.127936,0000-00-00,0000-00-00,0,1111130
1111201,1110315,札幌,,,11112,1,060-0806,,141.350768,43.068612,0000-00-00,0000-00-00,0,1111201
1111202,1110314,桑園,,,11112,1,060-0011,,141.332036,43.070744,0000-00-00,0000-00-00,0,1111202
1111203,1111203,八軒,,,11112,1,063-0866,,141.319145,43.085845,0000-00-00,0000-00-00,0,1111203
1111204,1111204,新川,,,11112,1,001-0924,,141.323824,43.098604,0000-00-00,0000-00-00,0,1111204
1111205,1111205,新琴似,,,11112,1,001-0908,,141.335105,43.112928,0000-00-00,0000-00-00,0,1111205
1111206,1111206,太平,,,11112,1,002-8002,,141.349526,43.12401,0000-00-00,0000-00-00,0,1111206
1111207,1111207,百合が原,,,11112,1,002-8051,,141.360672,43.131476,0000-00-00,0000-00-00,0,1111207
1111208,1111208,篠路,,,11112,1,002-8024,,141.364323,43.145152,0000-00-00,0000-00-00,0,1111208
1111209,1111209,拓北,,,11112,1,002-8066,,141.381013,43.155568,0000-00-00,0000-00-00,0,1111209
1111210,1111210,あいの里教育大,,,11112,1,002-8071,,141.39842,43.15528,0000-00-00,0000-00-00,0,1111210
1111211,1111211,あいの里公園,,,11112,1,002-8072,,141.413276,43.161206,0000-00-00,0000-00-00,0,1111211
1111212,1111212,石狩太美,,,11112,1,061-3776,,141.449066,43.189801,0000-00-00,0000-00-00,0,1111212
1111213,1111213,石狩当別,,,11112,1,061-0226,,141.513764,43.22208,0000-00-00,0000-00-00,0,1111213
1111214,1111214,北海道医療大学,,,11112,1,061-0212,,141.54995,43.230925,0000-00-00,0000-00-00,0,1111214
1111215,1111215,石狩金沢,,,11112,1,061-0212,,141.569239,43.245385,0000-00-00,0000-00-00,0,1111215
1111216,1111216,本中小屋,,,11112,1,061-0211,,141.591661,43.28019,0000-00-00,0000-00-00,0,1111216
1111217,1111217,中小屋,,,11112,1,061-0211,,141.602341,43.306846,0000-00-00,0000-00-00,0,1111217
1111218,1111218,月ケ岡,,,11112,1,061-0500,,141.61807,43.324867,0000-00-00,0000-00-00,0,1111218
1111219,1111219,知来乙,,,11112,1,061-0516,,141.649123,43.331545,0000-00-00,0000-00-00,0,1111219
1111220,1111220,石狩月形,,,11112,1,061-0518,,141.670193,43.340869,0000-00-00,0000-00-00,0,1111220
1111221,1111221,豊ケ岡,,,11112,1,061-0500,,141.714026,43.366645,0000-00-00,0000-00-00,0,1111221
1111222,1111222,札比内,,,11112,1,061-0505,,141.742762,43.370926,0000-00-00,0000-00-00,0,1111222
1111223,1111223,晩生内,,,11112,1,061-0622,,141.779211,43.399921,0000-00-00,0000-00-00,0,1111223
1111224,1111224,札的,,,11112,1,061-0600,,141.803549,43.419153,0000-00-00,0000-00-00,0,1111224
1111225,1111225,浦臼,,,11112,1,061-0600,,141.817376,43.430964,0000-00-00,0000-00-00,0,1111225
1111226,1111226,鶴沼,,,11112,1,061-0600,,141.840637,43.457673,0000-00-00,0000-00-00,0,1111226
1111227,1111227,於札内,,,11112,1,061-0600,,141.840102,43.473424,0000-00-00,0000-00-00,0,1111227
1111228,1111228,南下徳富,,,11112,1,073-1105,,141.844454,43.485542,0000-00-00,0000-00-00,0,1111228
1111229,1111229,下徳富,,,11112,1,073-1105,,141.855574,43.50271,0000-00-00,0000-00-00,0,1111229
1111230,1111230,新十津川,,,11112,1,073-1103,,141.874172,43.545575,0000-00-00,0000-00-00,0,1111230
1111301,1110338,深川,,,11113,1,074-0001,,142.041642,43.721021,0000-00-00,0000-00-00,0,1111301
1111302,1111302,北一已,,,11113,1,074-0028,,142.014721,43.742021,0000-00-00,0000-00-00,0,1111302
1111303,1111303,秩父別,,,11113,1,078-2100,,141.967757,43.769099,0000-00-00,0000-00-00,0,1111303
1111304,1111304,北秩父別,,,11113,1,078-2106,,141.960915,43.789375,0000-00-00,0000-00-00,0,1111304
1111305,1111305,石狩沼田,,,11113,1,078-2222,,141.934266,43.810032,0000-00-00,0000-00-00,0,1111305
1111306,1111306,真布,,,11113,1,078-2221,,141.906756,43.832965,0000-00-00,0000-00-00,0,1111306
1111307,1111307,恵比島,,,11113,1,078-2224,,141.88144,43.851296,0000-00-00,0000-00-00,0,1111307
1111308,1111308,峠下,,,11113,1,078-3161,,141.818879,43.850789,0000-00-00,0000-00-00,0,1111308
1111309,1111309,幌糠,,,11113,1,078-3168,,141.758418,43.855521,0000-00-00,0000-00-00,0,1111309
1111310,1111310,藤山,,,11113,1,078-3165,,141.720588,43.88708,0000-00-00,0000-00-00,0,1111310
1111311,1111311,大和田,,,11113,1,077-0012,,141.696528,43.913418,0000-00-00,0000-00-00,0,1111311
1111312,1111312,留萌,,,11113,1,077-0005,,141.651433,43.942848,0000-00-00,0000-00-00,0,1111312
1111313,1111313,瀬越,,,11113,1,077-0047,,141.634535,43.934987,1926-07-01,2016-12-05,2,1111313
1111314,1111314,浜中海水浴場,,,11113,1,077-0036,,141.632835,43.930354,1989-07-23,1995-08-08,2,1111314
1111315,1111315,礼受,,,11113,1,077-0035,,141.611358,43.904871,1921-11-05,2016-12-05,2,1111315
1111316,1111316,阿分,,,11113,1,077-0200,,141.605598,43.894339,1963-12-01,2016-12-05,2,1111316
1111317,1111317,信砂,,,11113,1,077-0200,,141.589039,43.874479,1963-12-01,2016-12-05,2,1111317
1111318,1111318,舎熊,,,11113,1,077-0200,,141.580068,43.869113,1921-11-05,2016-12-05,2,1111318
1111319,1111319,朱文別,,,11113,1,077-0200,,141.564328,43.860678,1963-12-01,2016-12-05,2,1111319
1111320,1111320,箸別,,,11113,1,077-0200,,141.55164,43.859125,1963-12-01,2016-12-05,2,1111320
1111321,1111321,増毛,,,11113,1,077-0205,,141.527559,43.856522,1921-11-05,2016-12-05,2,1111321
1111401,1110342,旭川,,,11114,1,070-0030,,142.357803,43.763492,0000-00-00,0000-00-00,0,1111401
1111402,1111402,神楽岡,,,11114,1,078-8314,,142.358257,43.745033,0000-00-00,0000-00-00,0,1111402
1111403,1111403,緑が丘,,,11114,1,078-8323,,142.365701,43.731074,0000-00-00,0000-00-00,0,1111403
1111404,1111404,西御料,,,11114,1,078-8381,,142.371507,43.720834,0000-00-00,0000-00-00,0,1111404
1111405,1111405,西瑞穂,,,11114,1,078-8381,,142.381982,43.70242,0000-00-00,0000-00-00,0,1111405
1111406,1111406,西神楽,,,11114,1,071-0171,,142.393677,43.682181,0000-00-00,0000-00-00,0,1111406
1111407,1111407,西聖和,,,11114,1,078-8382,,142.415209,43.669047,0000-00-00,0000-00-00,0,1111407
1111408,1111408,千代ケ岡,,,11114,1,078-8381,,142.451024,43.643737,0000-00-00,0000-00-00,0,1111408
1111409,1111409,北美瑛,,,11114,1,071-0226,,142.479594,43.617884,0000-00-00,0000-00-00,0,1111409
1111410,1111410,美瑛,,,11114,1,071-0208,,142.461639,43.591186,0000-00-00,0000-00-00,0,1111410
1111411,1111411,美馬牛,,,11114,1,071-0471,,142.447192,43.537408,0000-00-00,0000-00-00,0,1111411
1111412,1111412,上富良野,,,11114,1,071-0543,,142.468761,43.464046,0000-00-00,0000-00-00,0,1111412
1111413,1111413,西中,,,11114,1,071-0704,,142.441876,43.429569,0000-00-00,0000-00-00,0,1111413
1111414,1111414,ラベンダー畑,,,11114,1,071-0704,,142.434032,43.42065,0000-00-00,0000-00-00,0,1111414
1111415,1111415,中富良野,,,11114,1,071-0700,,142.420812,43.405704,0000-00-00,0000-00-00,0,1111415
1111416,1111416,鹿討,,,11114,1,071-0700,,142.404812,43.387499,0000-00-00,0000-00-00,0,1111416
1111417,1111417,学田,,,11114,1,076-0047,,142.386118,43.366234,0000-00-00,0000-00-00,0,1111417
1111418,1110610,富良野,,,11114,1,076-0025,,142.391374,43.347114,0000-00-00,0000-00-00,0,1111418
1111501,1110342,旭川,,,11115,1,070-0030,,142.357803,43.763492,0000-00-00,0000-00-00,0,1111501
1111502,1111502,旭川四条,,,11115,1,078-8214,,142.375815,43.764056,0000-00-00,0000-00-00,0,1111502
1111503,1111503,新旭川,,,11115,1,070-0028,,142.384789,43.780174,0000-00-00,0000-00-00,0,1111503
1111504,1111504,永山,,,11115,1,079-8411,,142.434382,43.814158,0000-00-00,0000-00-00,0,1111504
1111505,1111505,北永山,,,11115,1,079-8431,,142.454493,43.826736,0000-00-00,0000-00-00,0,1111505
1111506,1111506,南比布,,,11115,1,078-0311,,142.467271,43.853342,0000-00-00,0000-00-00,0,1111506
1111507,1111507,比布,,,11115,1,078-0341,,142.471294,43.874478,0000-00-00,0000-00-00,0,1111507
1111508,1111508,北比布,,,11115,1,078-0325,,142.476545,43.901728,0000-00-00,0000-00-00,0,1111508
1111509,1111509,蘭留,,,11115,1,078-0329,,142.473699,43.925072,0000-00-00,0000-00-00,0,1111509
1111510,1111510,塩狩,,,11115,1,098-0125,,142.4552,43.96794,0000-00-00,0000-00-00,0,1111510
1111511,1111511,和寒,,,11115,1,098-0133,,142.415309,44.026932,0000-00-00,0000-00-00,0,1111511
1111512,1111512,東六線,,,11115,1,098-0300,,142.388073,44.068723,0000-00-00,0000-00-00,0,1111512
1111513,1111513,剣淵,,,11115,1,098-0300,,142.364754,44.09643,0000-00-00,0000-00-00,0,1111513
1111514,1111514,北剣淵,,,11115,1,098-0300,,142.377955,44.139423,0000-00-00,0000-00-00,0,1111514
1111515,1111515,士別,,,11115,1,095-0023,,142.388247,44.172536,0000-00-00,0000-00-00,0,1111515
1111516,1111516,下士別,,,11115,1,095-0061,,142.396405,44.210583,0000-00-00,0000-00-00,0,1111516
1111517,1111517,多寄,,,11115,1,098-0475,,142.396315,44.241296,0000-00-00,0000-00-00,0,1111517
1111518,1111518,瑞穂,,,11115,1,098-0475,,142.396244,44.266349,0000-00-00,0000-00-00,0,1111518
1111519,1111519,風連,,,11115,1,098-0504,,142.421624,44.292238,0000-00-00,0000-00-00,0,1111519
1111520,1111520,東風連,,,11115,1,098-0512,,142.463087,44.316748,0000-00-00,0000-00-00,0,1111520
1111521,1111521,名寄,,,11115,1,096-0001,,142.465207,44.349403,0000-00-00,0000-00-00,0,1111521
1111522,1111522,日進,,,11115,1,096-0066,,142.467354,44.381713,0000-00-00,0000-00-00,0,1111522
1111523,1111523,北星,,,11115,1,098-2181,,142.428116,44.441569,0000-00-00,0000-00-00,0,1111523
1111524,1111524,智恵文,,,11115,1,098-2181,,142.414772,44.455553,0000-00-00,0000-00-00,0,1111524
1111525,1111525,智北,,,11115,1,098-2181,,142.394007,44.46103,0000-00-00,0000-00-00,0,1111525
1111526,1111526,南美深,,,11115,1,098-2205,,142.367822,44.462604,0000-00-00,0000-00-00,0,1111526
1111527,1111527,美深,,,11115,1,098-2238,,142.350597,44.482951,0000-00-00,0000-00-00,0,1111527
1111528,1111528,初野,,,11115,1,098-2211,,142.336129,44.512808,0000-00-00,0000-00-00,0,1111528
1111529,1111529,紋穂内,,,11115,1,098-2366,,142.33357,44.538761,0000-00-00,0000-00-00,0,1111529
1111530,1111530,恩根内,,,11115,1,098-2361,,142.309447,44.598486,0000-00-00,0000-00-00,0,1111530
1111531,1111531,豊清水,,,11115,1,098-2368,,142.270342,44.639503,0000-00-00,0000-00-00,0,1111531
1111532,1111532,天塩川温泉,,,11115,1,098-2502,,142.258682,44.665041,0000-00-00,0000-00-00,0,1111532
1111533,1111533,咲来,,,11115,1,098-2502,,142.267569,44.692702,0000-00-00,0000-00-00,0,1111533
1111534,1111534,音威子府,,,11115,1,098-2501,,142.259883,44.729448,0000-00-00,0000-00-00,0,1111534
1111535,1111535,筬島,,,11115,1,098-2500,,142.197777,44.738883,0000-00-00,0000-00-00,0,1111535
1111536,1111536,佐久,,,11115,1,098-2622,,142.048562,44.743986,0000-00-00,0000-00-00,0,1111536
1111537,1111537,天塩中川,,,11115,1,098-2802,,142.075335,44.81186,0000-00-00,0000-00-00,0,1111537
1111538,1111538,歌内,,,11115,1,098-2801,,142.052162,44.880493,0000-00-00,0000-00-00,0,1111538
1111539,1111539,問寒別,,,11115,1,098-2943,,142.025562,44.91233,0000-00-00,0000-00-00,0,1111539
1111540,1111540,糠南,,,11115,1,098-3200,,142.000931,44.920778,0000-00-00,0000-00-00,0,1111540
1111541,1111541,雄信内,,,11115,1,098-3151,,141.935888,44.911735,0000-00-00,0000-00-00,0,1111541
1111542,1111542,安牛,,,11115,1,098-3226,,141.894187,44.949809,0000-00-00,0000-00-00,0,1111542
1111543,1111543,南幌延,,,11115,1,098-3200,,141.884892,44.965084,0000-00-00,0000-00-00,0,1111543
1111544,1111544,上幌延,,,11115,1,098-3225,,141.880905,44.985787,0000-00-00,0000-00-00,0,1111544
1111545,1111545,幌延,,,11115,1,098-3211,,141.84569,45.014503,0000-00-00,0000-00-00,0,1111545
1111546,1111546,下沼,,,11115,1,098-3228,,141.758218,45.037146,0000-00-00,0000-00-00,0,1111546
1111547,1111547,豊富,,,11115,1,098-4100,,141.772088,45.104624,0000-00-00,0000-00-00,0,1111547
1111548,1111548,徳満,,,11115,1,098-4137,,141.751039,45.145838,0000-00-00,0000-00-00,0,1111548
1111549,1111549,兜沼,,,11115,1,098-4451,,141.6972,45.220236,0000-00-00,0000-00-00,0,1111549
1111550,1111550,勇知,,,11115,1,098-4581,,141.685151,45.259339,0000-00-00,0000-00-00,0,1111550
1111551,1111551,抜海,,,11115,1,097-0036,,141.644576,45.316866,0000-00-00,0000-00-00,0,1111551
1111552,1111552,南稚内,,,11115,1,097-0005,,141.683026,45.398166,0000-00-00,0000-00-00,0,1111552
1111553,1111553,稚内,,,11115,1,097-0022,,141.676999,45.416995,0000-00-00,0000-00-00,0,1111553
1111601,1110342,旭川,,,11116,1,070-0030,,142.357803,43.763492,0000-00-00,0000-00-00,0,1111601
1111602,1111502,旭川四条,,,11116,1,078-8214,,142.375815,43.764056,0000-00-00,0000-00-00,0,1111602
1111603,1111503,新旭川,,,11116,1,070-0028,,142.384789,43.780174,0000-00-00,0000-00-00,0,1111603
1111604,1111604,南永山,,,11116,1,079-8420,,142.40853,43.78055,0000-00-00,0000-00-00,0,1111604
1111605,1111605,東旭川,,,11116,1,078-8253,,142.441544,43.776571,0000-00-00,0000-00-00,0,1111605
1111606,1111606,北日ノ出,,,11116,1,078-8203,,142.466127,43.781813,0000-00-00,0000-00-00,0,1111606
1111607,1111607,桜岡,,,11116,1,078-8204,,142.486968,43.801812,0000-00-00,0000-00-00,0,1111607
1111608,1111608,当麻,,,11116,1,078-1300,,142.516987,43.825477,0000-00-00,0000-00-00,0,1111608
1111609,1111609,将軍山,,,11116,1,078-1334,,142.521559,43.857455,0000-00-00,0000-00-00,0,1111609
1111610,1111610,伊香牛,,,11116,1,078-1333,,142.525227,43.876025,0000-00-00,0000-00-00,0,1111610
1111611,1111611,愛別,,,11116,1,078-1401,,142.582176,43.898635,0000-00-00,0000-00-00,0,1111611
1111612,1111612,中愛別,,,11116,1,078-1652,,142.655424,43.896216,0000-00-00,0000-00-00,0,1111612
1111613,1111613,愛山,,,11116,1,078-1653,,142.680699,43.866442,0000-00-00,0000-00-00,0,1111613
1111614,1111614,安足間,,,11116,1,078-1653,,142.693868,43.852011,0000-00-00,0000-00-00,0,1111614
1111615,1111615,東雲,,,11116,1,078-1731,,142.716544,43.843693,0000-00-00,0000-00-00,0,1111615
1111616,1111616,上川,,,11116,1,078-1741,,142.766895,43.848508,0000-00-00,0000-00-00,0,1111616
1111617,1111617,上白滝,,,11116,1,099-0127,,143.1444,43.876501,1932-10-01,2016-03-26,2,1111617
1111618,1111618,白滝,,,11116,1,099-0111,,143.180795,43.884435,0000-00-00,0000-00-00,0,1111618
1111619,1111619,旧白滝,,,11116,1,099-0102,,143.236729,43.919905,1947-02-11,2016-03-26,2,1111619
1111620,1111620,下白滝,,,11116,1,099-0101,,143.276088,43.944553,1929-08-12,2016-03-26,2,1111620
1111621,1111621,丸瀬布,,,11116,1,099-0203,,143.335817,44.006354,0000-00-00,0000-00-00,0,1111621
1111622,1111622,瀬戸瀬,,,11116,1,099-0342,,143.420937,44.008753,0000-00-00,0000-00-00,0,1111622
1111623,1111623,遠軽,,,11116,1,099-0415,,143.520667,44.060278,0000-00-00,0000-00-00,0,1111623
1111624,1111624,安国,,,11116,1,099-0622,,143.535762,43.993322,0000-00-00,0000-00-00,0,1111624
1111625,1111625,生野,,,11116,1,099-0701,,143.532945,43.959928,0000-00-00,0000-00-00,0,1111625
1111626,1111626,生田原,,,11116,1,099-0701,,143.534627,43.923674,0000-00-00,0000-00-00,0,1111626
1111627,1111627,金華,,,11116,1,091-0021,,143.57114,43.803484,1914-10-05,2016-03-26,2,1111627
1111628,1111628,西留辺蘂,,,11116,1,091-0027,,143.603257,43.785345,0000-00-00,0000-00-00,0,1111628
1111629,1111629,留辺蘂,,,11116,1,091-0002,,143.621394,43.785534,0000-00-00,0000-00-00,0,1111629
1111630,1111630,相内,,,11116,1,099-0871,,143.756449,43.795948,0000-00-00,0000-00-00,0,1111630
1111631,1111631,東相内,,,11116,1,099-0878,,143.809499,43.805466,0000-00-00,0000-00-00,0,1111631
1111632,1111632,西北見,,,11116,1,090-0055,,143.841586,43.803114,0000-00-00,0000-00-00,0,1111632
1111633,1111633,北見,,,11116,1,090-0040,,143.898167,43.805504,0000-00-00,0000-00-00,0,1111633
1111634,1111634,柏陽,,,11116,1,090-0012,,143.916737,43.824911,0000-00-00,0000-00-00,0,1111634
1111635,1111635,愛し野,,,11116,1,099-2103,,143.932962,43.841426,0000-00-00,0000-00-00,0,1111635
1111636,1111636,端野,,,11116,1,099-2104,,143.942336,43.851172,0000-00-00,0000-00-00,0,1111636
1111637,1111637,緋牛内,,,11116,1,099-2231,,143.999887,43.880431,0000-00-00,0000-00-00,0,1111637
1111638,1111638,美幌,,,11116,1,092-0015,,144.10563,43.836967,0000-00-00,0000-00-00,0,1111638
1111639,1111639,西女満別,,,11116,1,099-2301,,144.148372,43.880057,0000-00-00,0000-00-00,0,1111639
1111640,1111640,女満別,,,11116,1,099-2310,,144.170665,43.915886,0000-00-00,0000-00-00,0,1111640
1111641,1111641,呼人,,,11116,1,099-2421,,144.218945,43.963695,0000-00-00,0000-00-00,0,1111641
1111642,1111642,網走,,,11116,1,093-0046,,144.254156,44.019873,0000-00-00,0000-00-00,0,1111642
1111701,1111642,網走,,,11117,1,093-0046,,144.254156,44.019873,0000-00-00,0000-00-00,0,1111701
1111702,1111702,桂台,,,11117,1,093-0031,,144.273223,44.016913,0000-00-00,0000-00-00,0,1111702
1111703,1111703,鱒浦,,,11117,1,099-3119,,144.296526,43.982481,0000-00-00,0000-00-00,0,1111703
1111704,1111704,藻琴,,,11117,1,099-3111,,144.320079,43.968358,0000-00-00,0000-00-00,0,1111704
1111705,1111705,北浜,,,11117,1,099-3112,,144.352541,43.958549,0000-00-00,0000-00-00,0,1111705
1111706,1111706,原生花園,,,11117,1,099-3452,,144.41443,43.941033,0000-00-00,0000-00-00,0,1111706
1111707,1111707,浜小清水,,,11117,1,099-3452,,144.453187,43.934077,0000-00-00,0000-00-00,0,1111707
1111708,1111708,止別,,,11117,1,099-3454,,144.519818,43.921558,0000-00-00,0000-00-00,0,1111708
1111709,1111709,知床斜里,,,11117,1,099-4112,,144.661647,43.910749,0000-00-00,0000-00-00,0,1111709
1111710,1111710,中斜里,,,11117,1,099-4142,,144.659033,43.874608,0000-00-00,0000-00-00,0,1111710
1111711,1111711,南斜里,,,11117,1,099-4143,,144.63431,43.867531,0000-00-00,0000-00-00,0,1111711
1111712,1111712,清里町,,,11117,1,099-4406,,144.593948,43.83871,0000-00-00,0000-00-00,0,1111712
1111713,1111713,札弦,,,11117,1,099-4521,,144.531526,43.786574,0000-00-00,0000-00-00,0,1111713
1111714,1111714,緑,,,11117,1,099-4525,,144.505499,43.718282,0000-00-00,0000-00-00,0,1111714
1111715,1111715,川湯温泉,,,11117,1,088-3462,,144.457749,43.616258,0000-00-00,0000-00-00,0,1111715
1111716,1111716,美留和,,,11117,1,088-3331,,144.437656,43.555316,0000-00-00,0000-00-00,0,1111716
1111717,1111717,摩周,,,11117,1,088-3204,,144.463981,43.487373,0000-00-00,0000-00-00,0,1111717
1111718,1111718,南弟子屈,,,11117,1,088-3200,,144.514729,43.428656,1929-08-15,2020-03-14,2,1111718
1111719,1111719,磯分内,,,11117,1,088-2300,,144.554322,43.379389,0000-00-00,0000-00-00,0,1111719
1111720,1111720,標茶,,,11117,1,088-2314,,144.608434,43.298472,0000-00-00,0000-00-00,0,1111720
1111721,1111721,五十石,,,11117,1,088-2331,,144.545558,43.238771,1927-09-15,2017-03-04,2,1111721
1111722,1111722,茅沼,,,11117,1,088-2265,,144.503788,43.202097,0000-00-00,0000-00-00,0,1111722
1111723,1111723,塘路,,,11117,1,088-2261,,144.496817,43.151739,0000-00-00,0000-00-00,0,1111723
1111724,1111724,細岡,,,11117,1,088-2148,,144.469683,43.105055,0000-00-00,0000-00-00,0,1111724
1111725,1111725,釧路湿原,,,11117,1,088-2148,,144.447799,43.100647,0000-00-00,0000-00-00,0,1111725
1111726,1111726,遠矢,,,11117,1,088-2145,,144.458367,43.047878,0000-00-00,0000-00-00,0,1111726
1111727,1110802,東釧路,,,11117,1,085-0816,,144.411307,42.995207,0000-00-00,0000-00-00,0,1111727
1111728,1110731,釧路,,,11117,1,085-0015,,144.381983,42.990584,0000-00-00,0000-00-00,0,1111728
1111801,1111801,中小国,,,11118,2,030-1305,,140.596798,41.051702,0000-00-00,0000-00-00,0,1111801
1111802,1111802,津軽今別,,,11118,2,030-1505,,140.515625,41.144885,0000-00-00,0000-00-00,0,1111802
1111803,1111803,竜飛海底,,,11118,2,030-1400,,140.347946,41.257228,1988-03-13,2014-03-14,2,1111803
1111804,1111804,吉岡海底,,,11118,1,049-1454,,140.239354,41.442162,1988-03-13,2014-03-14,2,1111804
1111805,1111805,知内,,,11118,1,049-1221,,140.33494,41.601092,1990-07-01,2014-03-14,2,1111805
1111806,1111806,木古内,,,11118,1,049-0422,,140.434004,41.677642,1930-10-25,0000-00-00,0,1111806
1111901,1111901,江差,,,11119,1,043-0056,,140.127933,41.856727,1936-11-10,2014-05-12,2,1111901
1111902,1111902,上ノ国,,,11119,1,049-0611,,140.124106,41.805567,1936-11-10,2014-05-12,2,1111902
1111903,1111903,中須田,,,11119,1,049-0624,,140.149321,41.787214,0000-00-00,2014-05-12,2,1111903
1111904,1111904,桂岡,,,11119,1,049-0626,,140.166071,41.773096,1936-11-10,2014-05-12,2,1111904
1111905,1111905,宮越,,,11119,1,049-0564,,140.184998,41.762404,1964-12-30,2014-05-12,2,1111905
1111906,1111906,湯ノ岱,,,11119,1,049-0562,,140.243698,41.750312,1935-12-10,2014-05-12,2,1111906
1111907,1111907,神明,,,11119,1,049-0561,,140.265709,41.734481,1957-01-25,2014-05-12,2,1111907
1111908,1111908,吉堀,,,11119,1,049-0453,,140.379226,41.684059,1935-12-10,2014-05-12,2,1111908
1111909,1111909,渡島鶴岡,,,11119,1,049-0455,,140.41137,41.671014,1964-12-30,2014-05-12,2,1111909
1111910,1111806,木古内,,,99108,1,049-0422,,140.434004,41.677642,0000-00-00,0000-00-00,0,1111910
1111911,1111911,札苅,,,99108,1,049-0411,,140.468097,41.699271,0000-00-00,0000-00-00,0,1111911
1111912,1111912,泉沢,,,99108,1,049-0405,,140.506797,41.700867,0000-00-00,0000-00-00,0,1111912
1111913,1111913,釜谷,,,99108,1,049-0403,,140.53718,41.712153,0000-00-00,0000-00-00,0,1111913
1111914,1111914,渡島当別,,,99108,1,049-0282,,140.579109,41.737309,1930-10-25,0000-00-00,0,1111914
1111915,1111915,茂辺地,,,99108,1,049-0281,,140.600561,41.766604,0000-00-00,0000-00-00,0,1111915
1111916,1111916,上磯,,,99108,1,049-0161,,140.640599,41.81956,0000-00-00,0000-00-00,0,1111916
1111917,1111917,清川口,,,99108,1,049-0100,,140.652906,41.824615,0000-00-00,0000-00-00,0,1111917
1111918,1111918,久根別,,,99108,1,049-0121,,140.666468,41.826727,0000-00-00,0000-00-00,0,1111918
1111919,1111919,東久根別,,,99108,1,049-0121,,140.679731,41.826005,0000-00-00,0000-00-00,0,1111919
1111920,1111920,七重浜,,,99108,1,049-0111,,140.707957,41.817643,0000-00-00,0000-00-00,0,1111920
1111921,1110102,五稜郭,,,99108,1,041-0813,,140.733539,41.803557,0000-00-00,0000-00-00,0,1111921
1111922,1110101,函館,,,99108,1,040-0063,,140.726413,41.773709,0000-00-00,0000-00-00,0,1111922
1120101,1120601,八戸,,,11201,2,039-1101,,141.431499,40.5092,0000-00-00,0000-00-00,2,1120101
1120201,1120201,新庄,,,11202,6,996-0024,,140.306064,38.76256,0000-00-00,0000-00-00,0,1120201
1120202,1120202,泉田,,,11202,6,999-5103,,140.310039,38.811758,0000-00-00,0000-00-00,0,1120202
1120203,1120203,羽前豊里,,,11202,6,999-5208,,140.242247,38.836748,0000-00-00,0000-00-00,0,1120203
1120204,1120204,真室川,,,11202,6,999-5312,,140.254814,38.858243,0000-00-00,0000-00-00,0,1120204
1120205,1120205,釜淵,,,11202,6,999-5604,,140.263864,38.93281,0000-00-00,0000-00-00,0,1120205
1120206,1120206,大滝,,,11202,6,999-5603,,140.320199,38.971485,0000-00-00,0000-00-00,0,1120206
1120207,1120207,及位,,,11202,6,999-5602,,140.361164,38.992983,0000-00-00,0000-00-00,0,1120207
1120208,1120208,院内,,,11202,5,019-0111,,140.4138,39.049706,0000-00-00,0000-00-00,0,1120208
1120209,1120209,横堀,,,11202,5,019-0205,,140.45131,39.064533,0000-00-00,0000-00-00,0,1120209
1120210,1120210,三関,,,11202,5,012-0864,,140.483796,39.110196,0000-00-00,0000-00-00,0,1120210
1120211,1120211,上湯沢,,,11202,5,012-0862,,140.485262,39.134221,0000-00-00,0000-00-00,0,1120211
1120212,1120212,湯沢,,,11202,5,012-0827,,140.487011,39.163443,0000-00-00,0000-00-00,0,1120212
1120213,1120213,下湯沢,,,11202,5,012-0802,,140.50249,39.197196,0000-00-00,0000-00-00,0,1120213
1120214,1120214,十文字,,,11202,5,019-0527,,140.526287,39.221186,0000-00-00,0000-00-00,0,1120214
1120215,1120215,醍醐,,,11202,5,013-0102,,140.53853,39.248716,0000-00-00,0000-00-00,0,1120215
1120216,1120216,柳田,,,11202,5,013-0054,,140.553856,39.276385,0000-00-00,0000-00-00,0,1120216
1120217,1120217,横手,,,11202,5,013-0036,,140.5604,39.310146,0000-00-00,0000-00-00,0,1120217
1120218,1120218,後三年,,,11202,5,019-1234,,140.538397,39.364891,0000-00-00,0000-00-00,0,1120218
1120219,1120219,飯詰,,,11202,5,019-1236,,140.515378,39.406013,0000-00-00,0000-00-00,0,1120219
1120220,1120220,大曲,,,11202,5,014-0027,,140.479628,39.465712,0000-00-00,0000-00-00,0,1120220
1120221,1120221,神宮寺,,,11202,5,019-1701,,140.426518,39.494841,0000-00-00,0000-00-00,0,1120221
1120222,1120222,刈和野,,,11202,5,019-2112,,140.372402,39.547646,0000-00-00,0000-00-00,0,1120222
1120223,1120223,峰吉川,,,11202,5,019-2431,,140.32314,39.566586,0000-00-00,0000-00-00,0,1120223
1120224,1120224,羽後境,,,11202,5,019-2411,,140.320722,39.618679,0000-00-00,0000-00-00,0,1120224
1120225,1120225,大張野,,,11202,5,019-2631,,140.274071,39.663347,0000-00-00,0000-00-00,0,1120225
1120226,1120226,和田,,,11202,5,019-2601,,140.218754,39.65087,0000-00-00,0000-00-00,0,1120226
1120227,1120227,四ツ小屋,,,11202,5,010-1417,,140.144946,39.661341,0000-00-00,0000-00-00,0,1120227
1120228,1120228,秋田,,,11202,5,010-0001,,140.129931,39.716748,0000-00-00,0000-00-00,0,1120228
1120229,1120229,土崎,,,11202,5,011-0946,,140.073601,39.758453,0000-00-00,0000-00-00,0,1120229
1120230,1120230,上飯島,,,11202,5,011-0911,,140.06847,39.779336,0000-00-00,0000-00-00,0,1120230
1120231,1120231,追分,,,11202,5,010-0126,,140.05781,39.809925,0000-00-00,0000-00-00,0,1120231
1120232,1120232,大久保,,,11202,5,018-1401,,140.063079,39.87089,0000-00-00,0000-00-00,0,1120232
1120233,1120233,羽後飯塚,,,11202,5,018-1504,,140.0733,39.898981,0000-00-00,0000-00-00,0,1120233
1120234,1120234,井川さくら,,,11202,5,018-1516,,140.076022,39.911925,0000-00-00,0000-00-00,0,1120234
1120235,1120235,八郎潟,,,11202,5,018-1614,,140.078382,39.947366,0000-00-00,0000-00-00,0,1120235
1120236,1120236,鯉川,,,11202,5,018-2103,,140.077474,39.996361,0000-00-00,0000-00-00,0,1120236
1120237,1120237,鹿渡,,,11202,5,018-2104,,140.082621,40.044619,0000-00-00,0000-00-00,0,1120237
1120238,1120238,森岳,,,11202,5,018-2303,,140.070886,40.103164,0000-00-00,0000-00-00,0,1120238
1120239,1120239,北金岡,,,11202,5,018-2301,,140.063565,40.141895,0000-00-00,0000-00-00,0,1120239
1120240,1120240,東能代,,,11202,5,016-0121,,140.065746,40.191579,0000-00-00,0000-00-00,0,1120240
1120241,1120241,鶴形,,,11202,5,016-0131,,140.118507,40.203879,0000-00-00,0000-00-00,0,1120241
1120242,1120242,富根,,,11202,5,018-3122,,140.172643,40.217956,0000-00-00,0000-00-00,0,1120242
1120243,1120243,二ツ井,,,11202,5,018-3143,,140.235729,40.212506,0000-00-00,0000-00-00,0,1120243
1120244,1120244,前山,,,11202,5,018-3342,,140.312378,40.214785,0000-00-00,0000-00-00,0,1120244
1120245,1120245,鷹ノ巣,,,11202,5,018-3321,,140.369816,40.232059,0000-00-00,0000-00-00,0,1120245
1120246,1120246,糠沢,,,11202,5,018-3301,,140.397827,40.251094,0000-00-00,0000-00-00,0,1120246
1120247,1120247,早口,,,11202,5,018-3505,,140.447572,40.271315,0000-00-00,0000-00-00,0,1120247
1120248,1120248,下川沿,,,11202,5,017-0878,,140.496625,40.276408,0000-00-00,0000-00-00,0,1120248
1120249,1120249,大館,,,11202,5,017-0044,,140.555946,40.288122,0000-00-00,0000-00-00,0,1120249
1120250,1120250,白沢,,,11202,5,017-0002,,140.591657,40.338103,0000-00-00,0000-00-00,0,1120250
1120251,1120251,陣場,,,11202,5,017-0001,,140.607523,40.398864,0000-00-00,0000-00-00,0,1120251
1120252,1120252,津軽湯の沢,,,11202,2,038-0101,,140.632055,40.441879,0000-00-00,0000-00-00,0,1120252
1120253,1120253,碇ケ関,,,11202,2,038-0101,,140.622443,40.478988,0000-00-00,0000-00-00,0,1120253
1120254,1120254,長峰,,,11202,2,038-0202,,140.603069,40.516072,0000-00-00,0000-00-00,0,1120254
1120255,1120255,大鰐温泉,,,11202,2,038-0211,,140.566914,40.52154,0000-00-00,0000-00-00,0,1120255
1120256,1120256,石川,,,11202,2,036-8124,,140.530951,40.556021,0000-00-00,0000-00-00,0,1120256
1120257,1120257,弘前,,,11202,2,036-8096,,140.485016,40.599723,0000-00-00,0000-00-00,0,1120257
1120258,1120258,撫牛子,,,11202,2,036-8075,,140.497616,40.621298,0000-00-00,0000-00-00,0,1120258
1120259,1120259,川部,,,11202,2,038-1141,,140.521376,40.646862,0000-00-00,0000-00-00,0,1120259
1120260,1120260,北常盤,,,11202,2,038-1214,,140.54359,40.67053,0000-00-00,0000-00-00,0,1120260
1120261,1120261,浪岡,,,11202,2,038-1311,,140.580664,40.71021,0000-00-00,0000-00-00,0,1120261
1120262,1120262,大釈迦,,,11202,2,038-1301,,140.587776,40.756736,0000-00-00,0000-00-00,0,1120262
1120263,1120263,鶴ケ坂,,,11202,2,038-0045,,140.634878,40.791228,0000-00-00,0000-00-00,0,1120263
1120264,1120264,津軽新城,,,11202,2,038-0042,,140.672025,40.828022,0000-00-00,0000-00-00,0,1120264
1120265,1120265,新青森,,,11202,2,038-0003,,140.693472,40.8275,1986-11-01,0000-00-00,0,1120265
1120266,1120120,青森,,,11202,2,038-0012,,140.734738,40.828668,0000-00-00,0000-00-00,0,1120266
1120301,1120110,野辺地,,,11203,2,039-3131,,141.119603,40.855142,0000-00-00,0000-00-00,0,1120301
1120302,1120302,北野辺地,,,11203,2,039-3131,,141.134115,40.871077,0000-00-00,0000-00-00,0,1120302
1120303,1120303,有戸,,,11203,2,039-3108,,141.189264,40.913949,0000-00-00,0000-00-00,0,1120303
1120304,1120304,吹越,,,11203,2,039-4153,,141.246552,41.022038,0000-00-00,0000-00-00,0,1120304
1120305,1120305,陸奥横浜,,,11203,2,039-4133,,141.249757,41.086544,0000-00-00,0000-00-00,0,1120305
1120306,1120306,有畑,,,11203,2,039-4106,,141.276421,41.131818,0000-00-00,0000-00-00,0,1120306
1120307,1120307,近川,,,11203,2,035-0011,,141.279021,41.191687,0000-00-00,0000-00-00,0,1120307
1120308,1120308,金谷沢,,,11203,2,035-0011,,141.248432,41.228854,0000-00-00,0000-00-00,0,1120308
1120309,1120309,赤川,,,11203,2,035-0044,,141.209339,41.267829,0000-00-00,0000-00-00,0,1120309
1120310,1120310,下北,,,11203,2,035-0061,,141.18989,41.28288,0000-00-00,0000-00-00,0,1120310
1120311,1120311,大湊,,,11203,2,035-0084,,141.161772,41.280344,0000-00-00,0000-00-00,0,1120311
1120401,1120240,東能代,,,11204,5,016-0121,,140.065746,40.191579,0000-00-00,0000-00-00,0,1120401
1120402,1120402,能代,,,11204,5,016-0831,,140.033084,40.206577,0000-00-00,0000-00-00,0,1120402
1120403,1120403,向能代,,,11204,5,016-0014,,140.039111,40.225669,0000-00-00,0000-00-00,0,1120403
1120404,1120404,北能代,,,11204,5,016-0016,,140.033835,40.254138,0000-00-00,0000-00-00,0,1120404
1120405,1120405,鳥形,,,11204,5,016-0011,,140.036931,40.271433,0000-00-00,0000-00-00,0,1120405
1120406,1120406,沢目,,,11204,5,018-2501,,140.037824,40.295929,0000-00-00,0000-00-00,0,1120406
1120407,1120407,東八森,,,11204,5,018-2678,,140.032462,40.332086,0000-00-00,0000-00-00,0,1120407
1120408,1120408,八森,,,11204,5,018-2641,,140.017882,40.37135,0000-00-00,0000-00-00,0,1120408
1120409,1120409,滝ノ間,,,11204,5,018-2623,,140.00221,40.379967,0000-00-00,0000-00-00,0,1120409
1120410,1120410,あきた白神,,,11204,5,018-2617,,139.987793,40.386583,0000-00-00,0000-00-00,0,1120410
1120411,1120411,岩館,,,11204,5,018-2606,,139.966258,40.406241,0000-00-00,0000-00-00,0,1120411
1120412,1120412,大間越,,,11204,2,038-2208,,139.950062,40.492407,0000-00-00,0000-00-00,0,1120412
1120413,1120413,白神岳登山口,,,11204,2,038-2207,,139.950318,40.513551,0000-00-00,0000-00-00,0,1120413
1120414,1120414,松神,,,11204,2,038-2206,,139.946556,40.534902,0000-00-00,0000-00-00,0,1120414
1120415,1120415,十二湖,,,11204,2,038-2206,,139.941986,40.551539,0000-00-00,0000-00-00,0,1120415
1120416,1120416,陸奥岩崎,,,11204,2,038-2202,,139.924183,40.583333,0000-00-00,0000-00-00,0,1120416
1120417,1120417,陸奥沢辺,,,11204,2,038-2201,,139.894991,40.586175,0000-00-00,0000-00-00,0,1120417
1120418,1120418,ウェスパ椿山,,,11204,2,038-2327,,139.871157,40.592913,0000-00-00,0000-00-00,0,1120418
1120419,1120419,艫作,,,11204,2,038-2327,,139.864856,40.608534,0000-00-00,0000-00-00,0,1120419
1120420,1120420,横磯,,,11204,2,038-2325,,139.89091,40.629891,0000-00-00,0000-00-00,0,1120420
1120421,1120421,深浦,,,11204,2,038-2324,,139.929372,40.650239,0000-00-00,0000-00-00,0,1120421
1120422,1120422,広戸,,,11204,2,038-2321,,139.955586,40.67434,0000-00-00,0000-00-00,0,1120422
1120423,1120423,追良瀬,,,11204,2,038-2413,,139.970298,40.686114,0000-00-00,0000-00-00,0,1120423
1120424,1120424,驫木,,,11204,2,038-2412,,139.982954,40.707218,0000-00-00,0000-00-00,0,1120424
1120425,1120425,風合瀬,,,11204,2,038-2411,,139.99432,40.731826,0000-00-00,0000-00-00,0,1120425
1120426,1120426,大戸瀬,,,11204,2,038-2505,,140.033596,40.759325,0000-00-00,0000-00-00,0,1120426
1120427,1120427,千畳敷,,,11204,2,038-2504,,140.054832,40.767769,0000-00-00,0000-00-00,0,1120427
1120428,1120428,北金ケ沢,,,11204,2,038-2503,,140.095052,40.745995,0000-00-00,0000-00-00,0,1120428
1120429,1120429,陸奥柳田,,,11204,2,038-2501,,140.123243,40.740616,0000-00-00,0000-00-00,0,1120429
1120430,1120430,陸奥赤石,,,11204,2,038-2731,,140.162057,40.76156,0000-00-00,0000-00-00,0,1120430
1120431,1120431,鰺ケ沢,,,11204,2,038-2761,,140.220589,40.775255,0000-00-00,0000-00-00,0,1120431
1120432,1120432,鳴沢,,,11204,2,038-2701,,140.267617,40.782189,0000-00-00,0000-00-00,0,1120432
1120433,1120433,越水,,,11204,2,038-2818,,140.298628,40.787258,0000-00-00,0000-00-00,0,1120433
1120434,1120434,陸奥森田,,,11204,2,038-2817,,140.339033,40.781738,0000-00-00,0000-00-00,0,1120434
1120435,1120435,中田,,,11204,2,038-2814,,140.364505,40.787424,0000-00-00,0000-00-00,0,1120435
1120436,1120436,木造,,,11204,2,038-3158,,140.387775,40.802482,0000-00-00,0000-00-00,0,1120436
1120437,1120437,五所川原,,,11204,2,037-0063,,140.44776,40.809124,0000-00-00,0000-00-00,0,1120437
1120438,1120438,陸奥鶴田,,,11204,2,038-3503,,140.435276,40.757544,0000-00-00,0000-00-00,0,1120438
1120439,1120439,鶴泊,,,11204,2,038-3522,,140.437616,40.736026,0000-00-00,0000-00-00,0,1120439
1120440,1120440,板柳,,,11204,2,038-3661,,140.461785,40.69726,0000-00-00,0000-00-00,0,1120440
1120441,1120441,林崎,,,11204,2,038-3806,,140.480401,40.675355,0000-00-00,0000-00-00,0,1120441
1120442,1120442,藤崎,,,11204,2,038-3802,,140.499531,40.654047,0000-00-00,0000-00-00,0,1120442
1120443,1120259,川部,,,11204,2,038-1141,,140.521376,40.646862,0000-00-00,0000-00-00,0,1120443
1120501,1120120,青森,,,11205,2,038-0012,,140.734738,40.828668,0000-00-00,0000-00-00,0,1120501
1120502,1120502,油川,,,11205,2,038-0058,,140.690476,40.857035,0000-00-00,0000-00-00,0,1120502
1120503,1120503,津軽宮田,,,11205,2,038-0054,,140.674579,40.887184,0000-00-00,0000-00-00,0,1120503
1120504,1120504,奥内,,,11205,2,038-0052,,140.672382,40.903044,0000-00-00,0000-00-00,0,1120504
1120505,1120505,左堰,,,11205,2,030-1273,,140.665929,40.917214,0000-00-00,0000-00-00,0,1120505
1120506,1120506,後潟,,,11205,2,030-1271,,140.662734,40.931519,0000-00-00,0000-00-00,0,1120506
1120507,1120507,中沢,,,11205,2,030-1261,,140.656244,40.949044,0000-00-00,0000-00-00,0,1120507
1120508,1120508,蓬田,,,11205,2,030-1212,,140.654533,40.969042,0000-00-00,0000-00-00,0,1120508
1120509,1120509,郷沢,,,11205,2,030-1203,,140.652399,40.987682,0000-00-00,0000-00-00,0,1120509
1120510,1120510,瀬辺地,,,11205,2,030-1202,,140.648179,41.007869,0000-00-00,0000-00-00,0,1120510
1120511,1120511,蟹田,,,11205,2,030-1303,,140.642565,41.038274,0000-00-00,0000-00-00,0,1120511
1120512,1111801,中小国,,,11205,2,030-1305,,140.596798,41.051702,0000-00-00,0000-00-00,0,1120512
1120513,1120513,大平,,,11205,2,030-1307,,140.559375,41.065866,0000-00-00,0000-00-00,0,1120513
1120514,1111802,津軽二股,,,11205,2,030-1505,,140.514231,41.145937,0000-00-00,0000-00-00,0,1120514
1120515,1120515,大川平,,,11205,2,030-1505,,140.507592,41.163204,0000-00-00,0000-00-00,0,1120515
1120516,1120516,今別,,,11205,2,030-1502,,140.490448,41.179741,0000-00-00,0000-00-00,0,1120516
1120517,1120517,津軽浜名,,,11205,2,030-1501,,140.47185,41.180521,0000-00-00,0000-00-00,0,1120517
1120518,1120518,三厩,,,11205,2,030-1737,,140.444482,41.185404,0000-00-00,0000-00-00,0,1120518
1120601,1120601,八戸,,,11206,2,039-1101,,141.431499,40.5092,0000-00-00,0000-00-00,0,1120601
1120602,1120602,長苗代,,,11206,2,039-1103,,141.465907,40.52146,0000-00-00,0000-00-00,0,1120602
1120603,1120603,本八戸,,,11206,2,031-0075,,141.488762,40.516286,0000-00-00,0000-00-00,0,1120603
1120604,1120604,小中野,,,11206,2,031-0802,,141.510032,40.518767,0000-00-00,0000-00-00,0,1120604
1120605,1120605,陸奥湊,,,11206,2,031-0812,,141.527652,40.52335,0000-00-00,0000-00-00,0,1120605
1120606,1120606,白銀,,,11206,2,031-0821,,141.541648,40.522031,0000-00-00,0000-00-00,0,1120606
1120607,1120607,鮫,,,11206,2,031-0841,,141.554891,40.530244,0000-00-00,0000-00-00,0,1120607
1120608,1120608,プレイピア白浜,,,11206,2,031-0841,,141.581528,40.524448,1986-08-01,2012-03-17,2,1120608
1120609,1120609,陸奥白浜,,,11206,2,031-0841,,141.592299,40.516636,0000-00-00,0000-00-00,0,1120609
1120610,1120610,種差海岸,,,11206,2,031-0841,,141.607367,40.506951,0000-00-00,0000-00-00,0,1120610
1120611,1120611,大久喜,,,11206,2,031-0841,,141.622958,40.495135,0000-00-00,0000-00-00,0,1120611
1120612,1120612,金浜,,,11206,2,031-0843,,141.637366,40.475994,0000-00-00,0000-00-00,0,1120612
1120613,1120613,大蛇,,,11206,2,039-1201,,141.650773,40.467251,0000-00-00,0000-00-00,0,1120613
1120614,1120614,階上,,,11206,2,039-1201,,141.664958,40.456834,0000-00-00,0000-00-00,0,1120614
1120615,1120615,角の浜,,,11206,3,028-7911,,141.681773,40.444478,0000-00-00,0000-00-00,0,1120615
1120616,1120616,平内,,,11206,3,028-7900,,141.699272,40.42552,0000-00-00,0000-00-00,0,1120616
1120617,1120617,種市,,,11206,3,028-7900,,141.715232,40.410384,0000-00-00,0000-00-00,0,1120617
1120618,1120618,玉川,,,11206,3,028-7900,,141.735117,40.380424,0000-00-00,0000-00-00,0,1120618
1120619,1120619,宿戸,,,11206,3,028-7900,,141.746683,40.366129,0000-00-00,0000-00-00,0,1120619
1120620,1120620,陸中八木,,,11206,3,028-7900,,141.766517,40.345485,0000-00-00,0000-00-00,0,1120620
1120621,1120621,有家,,,11206,3,028-7905,,141.773031,40.324007,0000-00-00,0000-00-00,0,1120621
1120622,1120622,陸中中野,,,11206,3,028-7906,,141.787768,40.305165,0000-00-00,0000-00-00,0,1120622
1120623,1120623,侍浜,,,11206,3,028-7801,,141.760575,40.261375,0000-00-00,0000-00-00,0,1120623
1120624,1120624,陸中夏井,,,11206,3,028-0001,,141.791906,40.207747,0000-00-00,0000-00-00,0,1120624
1120625,1120625,久慈,,,11206,3,028-0061,,141.770891,40.190391,0000-00-00,0000-00-00,0,1120625
1120701,1120701,茂市,,,11207,3,028-2101,,141.799288,39.620619,1934-11-06,2014-04-01,2,1120701
1120702,1120702,岩手刈屋,,,11207,3,028-2104,,141.759296,39.642688,1942-06-25,2014-04-01,2,1120702
1120703,1120703,中里,,,11207,3,028-2104,,141.736067,39.661836,1966-10-01,2014-04-01,2,1120703
1120704,1120704,岩手和井内,,,11207,3,028-2105,,141.715705,39.679905,1942-06-25,2014-04-01,2,1120704
1120705,1120705,押角,,,11207,3,028-2105,,141.693181,39.724029,1944-07-20,2014-04-01,2,1120705
1120706,1120706,岩手大川,,,11207,3,028-2232,,141.671909,39.800208,1957-05-16,2014-04-01,2,1120706
1120707,1120707,浅内,,,11207,3,028-2231,,141.727016,39.819482,1957-05-16,2014-04-01,2,1120707
1120708,1120708,二升石,,,11207,3,027-0507,,141.745741,39.836739,1972-02-06,2014-04-01,2,1120708
1120709,1120709,岩泉,,,11207,3,027-0501,,141.786446,39.845044,1972-02-06,2014-04-01,2,1120709
1120801,1123166,一ノ関,,,11208,3,021-0867,,141.138177,38.926514,0000-00-00,0000-00-00,0,1120801
1120802,1120802,真滝,,,11208,3,029-0132,,141.17793,38.908239,0000-00-00,0000-00-00,0,1120802
1120803,1120803,陸中門崎,,,11208,3,029-0201,,141.251226,38.916908,0000-00-00,0000-00-00,0,1120803
1120804,1120804,岩ノ下,,,11208,3,029-0303,,141.245342,38.947699,0000-00-00,0000-00-00,0,1120804
1120805,1120805,陸中松川,,,11208,3,029-0303,,141.238046,38.977237,0000-00-00,0000-00-00,0,1120805
1120806,1120806,猊鼻渓,,,11208,3,029-0302,,141.25327,38.988939,0000-00-00,0000-00-00,0,1120806
1120807,1120807,柴宿,,,11208,3,029-0302,,141.272312,38.996719,0000-00-00,0000-00-00,0,1120807
1120808,1120808,摺沢,,,11208,3,029-0523,,141.32146,38.99593,0000-00-00,0000-00-00,0,1120808
1120809,1120809,千厩,,,11208,3,029-0803,,141.34563,38.924873,0000-00-00,0000-00-00,0,1120809
1120810,1120810,小梨,,,11208,3,029-0801,,141.38418,38.932493,0000-00-00,0000-00-00,0,1120810
1120811,1120811,矢越,,,11208,3,029-1202,,141.429029,38.935224,0000-00-00,0000-00-00,0,1120811
1120812,1120812,折壁,,,11208,3,029-1201,,141.452346,38.939428,0000-00-00,0000-00-00,0,1120812
1120813,1120813,新月,,,11208,3,029-1201,,141.488796,38.915598,0000-00-00,0000-00-00,0,1120813
1120814,1120814,気仙沼,,,11208,4,988-0077,,141.558893,38.910031,0000-00-00,0000-00-00,0,1120814
1120815,1120815,鹿折唐桑,,,11208,4,988-0005,,141.579457,38.915555,0000-00-00,2020-04-01,2,1120815
1120816,1120816,上鹿折,,,11208,4,988-0803,,141.568232,38.960661,0000-00-00,2020-04-01,2,1120816
1120817,1120817,陸前矢作,,,11208,3,029-2201,,141.579357,39.022554,0000-00-00,2020-04-01,2,1120817
1120818,1120818,竹駒,,,11208,3,029-2203,,141.609729,39.033651,0000-00-00,2020-04-01,2,1120818
1120819,1120819,陸前高田,,,11208,3,029-2205,,141.625332,39.013021,0000-00-00,2020-04-01,2,1120819
1120820,1120820,脇ノ沢,,,11208,3,029-2206,,141.657359,39.006584,0000-00-00,2020-04-01,2,1120820
1120821,1120821,小友,,,11208,3,029-2207,,141.699573,38.989242,0000-00-00,2020-04-01,2,1120821
1120822,1120822,細浦,,,11208,3,022-0001,,141.713642,39.015973,0000-00-00,2020-04-01,2,1120822
1120823,1120823,下船渡,,,11208,3,022-0002,,141.721222,39.038362,0000-00-00,2020-04-01,2,1120823
1120824,1120824,大船渡,,,11208,3,022-0002,,141.720807,39.063529,0000-00-00,2020-04-01,2,1120824
1120825,1120825,盛,,,11208,3,022-0003,,141.710734,39.086372,0000-00-00,2020-04-01,2,1120825
1120901,1123176,花巻,,,11209,3,025-0092,,141.110458,39.393182,0000-00-00,0000-00-00,0,1120901
1120902,1120902,似内,,,11209,3,025-0007,,141.140889,39.406819,0000-00-00,0000-00-00,0,1120902
1120903,1120903,新花巻,,,11209,3,025-0011,,141.17302,39.405839,0000-00-00,0000-00-00,0,1120903
1120904,1120904,小山田,,,11209,3,025-0013,,141.193999,39.4086,0000-00-00,0000-00-00,0,1120904
1120905,1120905,土沢,,,11209,3,028-0114,,141.232488,39.383381,0000-00-00,0000-00-00,0,1120905
1120906,1120906,晴山,,,11209,3,028-0113,,141.257892,39.366617,0000-00-00,0000-00-00,0,1120906
1120907,1120907,岩根橋,,,11209,3,028-0304,,141.318795,39.355264,0000-00-00,0000-00-00,0,1120907
1120908,1120908,宮守,,,11209,3,028-0304,,141.350271,39.351066,0000-00-00,0000-00-00,0,1120908
1120909,1120909,柏木平,,,11209,3,028-0303,,141.379862,39.30606,0000-00-00,0000-00-00,0,1120909
1120910,1120910,鱒沢,,,11209,3,028-0303,,141.399252,39.300158,0000-00-00,0000-00-00,0,1120910
1120911,1120911,荒谷前,,,11209,3,028-0302,,141.428507,39.309928,0000-00-00,0000-00-00,0,1120911
1120912,1120912,岩手二日町,,,11209,3,028-0532,,141.45606,39.323441,0000-00-00,0000-00-00,0,1120912
1120913,1120913,綾織,,,11209,3,028-0531,,141.476845,39.328422,0000-00-00,0000-00-00,0,1120913
1120914,1120914,遠野,,,11209,3,028-0522,,141.53072,39.332529,0000-00-00,0000-00-00,0,1120914
1120915,1120915,青笹,,,11209,3,028-0503,,141.568957,39.311482,0000-00-00,0000-00-00,0,1120915
1120916,1120916,岩手上郷,,,11209,3,028-0776,,141.585834,39.284658,0000-00-00,0000-00-00,0,1120916
1120917,1120917,平倉,,,11209,3,028-0775,,141.595661,39.264682,0000-00-00,0000-00-00,0,1120917
1120918,1120918,足ケ瀬,,,11209,3,028-0772,,141.645807,39.254766,0000-00-00,0000-00-00,0,1120918
1120919,1120919,上有住,,,11209,3,029-2501,,141.681522,39.242013,0000-00-00,0000-00-00,0,1120919
1120920,1120920,陸中大橋,,,11209,3,026-0055,,141.718436,39.280451,0000-00-00,0000-00-00,0,1120920
1120921,1120921,洞泉,,,11209,3,026-0055,,141.760388,39.250671,0000-00-00,0000-00-00,0,1120921
1120922,1120922,松倉,,,11209,3,026-0055,,141.801484,39.256458,0000-00-00,0000-00-00,0,1120922
1120923,1120923,小佐野,,,11209,3,026-0052,,141.836515,39.264464,0000-00-00,0000-00-00,0,1120923
1120924,1120924,釜石,,,11209,3,026-0031,,141.87267,39.273321,0000-00-00,0000-00-00,0,1120924
1121001,1123174,北上,,,11210,3,024-0061,,141.121221,39.281196,0000-00-00,0000-00-00,0,1121001
1121002,1121002,柳原,,,11210,3,024-0083,,141.111671,39.294597,0000-00-00,0000-00-00,0,1121002
1121003,1121003,江釣子,,,11210,3,024-0071,,141.075749,39.298349,0000-00-00,0000-00-00,0,1121003
1121004,1121004,藤根,,,11210,3,024-0334,,141.039571,39.301064,0000-00-00,0000-00-00,0,1121004
1121005,1121005,立川目,,,11210,3,024-0332,,140.997144,39.307876,0000-00-00,0000-00-00,0,1121005
1121006,1121006,横川目,,,11210,3,024-0331,,140.972143,39.309255,0000-00-00,0000-00-00,0,1121006
1121007,1121007,岩沢,,,11210,3,024-0325,,140.931616,39.301016,0000-00-00,0000-00-00,0,1121007
1121008,1121008,和賀仙人,,,11210,3,024-0326,,140.909485,39.308523,0000-00-00,0000-00-00,0,1121008
1121009,1121009,ゆだ錦秋湖,,,11210,3,029-5513,,140.835343,39.295513,0000-00-00,0000-00-00,0,1121009
1121010,1121010,ほっとゆだ,,,11210,3,029-5512,,140.775647,39.314493,0000-00-00,0000-00-00,0,1121010
1121011,1121011,ゆだ高原,,,11210,3,029-5523,,140.737205,39.301074,0000-00-00,0000-00-00,0,1121011
1121012,1121012,黒沢,,,11210,5,019-1103,,140.699619,39.276243,0000-00-00,0000-00-00,0,1121012
1121013,1121013,小松川,,,11210,5,019-1102,,140.646094,39.293403,0000-00-00,0000-00-00,0,1121013
1121014,1121014,平石,,,11210,5,019-1108,,140.628457,39.291678,0000-00-00,0000-00-00,0,1121014
1121015,1121015,相野々,,,11210,5,019-1108,,140.619067,39.27805,0000-00-00,0000-00-00,0,1121015
1121016,1121016,矢美津,,,11210,5,019-1109,,140.592099,39.291283,0000-00-00,0000-00-00,0,1121016
1121017,1120217,横手,,,11210,5,013-0036,,140.5604,39.310146,0000-00-00,0000-00-00,0,1121017
1121101,1123185,盛岡,,,11211,3,020-0034,,141.136599,39.701547,0000-00-00,0000-00-00,0,1121101
1121102,1121102,大釜,,,11211,3,020-0731,,141.072202,39.711586,0000-00-00,0000-00-00,0,1121102
1121103,1121103,小岩井,,,11211,3,020-0757,,141.02465,39.709731,0000-00-00,0000-00-00,0,1121103
1121104,1121104,雫石,,,11211,3,020-0524,,140.974762,39.689244,0000-00-00,0000-00-00,0,1121104
1121105,1121105,春木場,,,11211,3,020-0583,,140.943954,39.693396,0000-00-00,0000-00-00,0,1121105
1121106,1121106,赤渕,,,11211,3,020-0581,,140.907222,39.685112,0000-00-00,0000-00-00,0,1121106
1121107,1121107,田沢湖,,,11211,5,014-1201,,140.722139,39.700363,0000-00-00,0000-00-00,0,1121107
1121108,1121108,刺巻,,,11211,5,014-1202,,140.69196,39.668563,0000-00-00,0000-00-00,0,1121108
1121109,1121109,神代,,,11211,5,014-1113,,140.627358,39.622667,0000-00-00,0000-00-00,0,1121109
1121110,1121110,生田,,,11211,5,014-1114,,140.601203,39.612065,0000-00-00,0000-00-00,0,1121110
1121111,1121111,角館,,,11211,5,014-0373,,140.570988,39.591716,0000-00-00,0000-00-00,0,1121111
1121112,1121112,鶯野,,,11211,5,014-0201,,140.557901,39.568536,0000-00-00,0000-00-00,0,1121112
1121113,1121113,羽後長野,,,11211,5,014-0207,,140.540448,39.546003,0000-00-00,0000-00-00,0,1121113
1121114,1121114,鑓見内,,,11211,5,014-0205,,140.527744,39.519323,0000-00-00,0000-00-00,0,1121114
1121115,1121115,羽後四ツ屋,,,11211,5,014-0102,,140.511886,39.501511,0000-00-00,0000-00-00,0,1121115
1121116,1121116,北大曲,,,11211,5,014-0102,,140.497966,39.48944,0000-00-00,0000-00-00,0,1121116
1121117,1120220,大曲,,,11211,5,014-0027,,140.479628,39.465712,0000-00-00,0000-00-00,0,1121117
1121201,1121201,好摩,,,11212,3,028-4125,,141.173685,39.874037,0000-00-00,0000-00-00,0,1121201
1121202,1121202,東大更,,,11212,3,028-7111,,141.142537,39.902621,0000-00-00,0000-00-00,0,1121202
1121203,1121203,大更,,,11212,3,028-7111,,141.100808,39.913746,0000-00-00,0000-00-00,0,1121203
1121204,1121204,平館,,,11212,3,028-7405,,141.08531,39.950886,0000-00-00,0000-00-00,0,1121204
1121205,1121205,北森,,,11212,3,028-7305,,141.066481,39.959201,0000-00-00,0000-00-00,0,1121205
1121206,1121206,松尾八幡平,,,11212,3,028-7305,,141.043903,39.969241,0000-00-00,0000-00-00,0,1121206
1121207,1121207,安比高原,,,11212,3,028-7305,,140.997239,40.012587,0000-00-00,0000-00-00,0,1121207
1121208,1121208,赤坂田,,,11212,3,028-7554,,141.00394,40.048464,0000-00-00,0000-00-00,0,1121208
1121209,1121209,小屋の畑,,,11212,3,028-7544,,141.020673,40.076539,0000-00-00,0000-00-00,0,1121209
1121210,1121210,荒屋新町,,,11212,3,028-7534,,141.049196,40.097682,0000-00-00,0000-00-00,0,1121210
1121211,1121211,横間,,,11212,3,028-7536,,141.027151,40.107475,0000-00-00,0000-00-00,0,1121211
1121212,1121212,田山,,,11212,3,028-7615,,140.944126,40.139674,0000-00-00,0000-00-00,0,1121212
1121213,1121213,兄畑,,,11212,3,028-7625,,140.88302,40.115869,0000-00-00,0000-00-00,0,1121213
1121214,1121214,湯瀬温泉,,,11212,5,018-5141,,140.840292,40.122384,0000-00-00,0000-00-00,0,1121214
1121215,1121215,八幡平,,,11212,5,018-5141,,140.804496,40.142881,0000-00-00,0000-00-00,0,1121215
1121216,1121216,陸中大里,,,11212,5,018-5141,,140.793477,40.158574,0000-00-00,0000-00-00,0,1121216
1121217,1121217,鹿角花輪,,,11212,5,018-5201,,140.785088,40.188453,0000-00-00,0000-00-00,0,1121217
1121218,1121218,柴平,,,11212,5,018-5201,,140.787941,40.230751,0000-00-00,0000-00-00,0,1121218
1121219,1121219,十和田南,,,11212,5,018-5336,,140.770716,40.256069,0000-00-00,0000-00-00,0,1121219
1121220,1121220,末広,,,11212,5,018-5337,,140.737251,40.229788,0000-00-00,0000-00-00,0,1121220
1121221,1121221,土深井,,,11212,5,018-5337,,140.713142,40.222452,0000-00-00,0000-00-00,0,1121221
1121222,1121222,沢尻,,,11212,5,018-5601,,140.693288,40.230342,0000-00-00,0000-00-00,0,1121222
1121223,1121223,十二所,,,11212,5,018-5601,,140.668211,40.21429,0000-00-00,0000-00-00,0,1121223
1121224,1121224,大滝温泉,,,11212,5,018-5601,,140.639625,40.209751,0000-00-00,0000-00-00,0,1121224
1121225,1121225,扇田,,,11212,5,018-5701,,140.572472,40.229235,0000-00-00,0000-00-00,0,1121225
1121226,1121226,東大館,,,11212,5,017-0846,,140.554745,40.266005,0000-00-00,0000-00-00,0,1121226
1121227,1120249,大館,,,11212,5,017-0044,,140.555946,40.288122,0000-00-00,0000-00-00,0,1121227
1121301,1123185,盛岡,,,11213,3,020-0034,,141.136599,39.701547,0000-00-00,0000-00-00,0,1121301
1121302,1121302,上盛岡,,,11213,3,020-0015,,141.147937,39.71146,0000-00-00,0000-00-00,0,1121302
1121303,1121303,山岸,,,11213,3,020-0004,,141.171401,39.71596,0000-00-00,0000-00-00,0,1121303
1121304,1121304,上米内,,,11213,3,020-0001,,141.203825,39.743855,0000-00-00,0000-00-00,0,1121304
1121305,1121305,大志田,,,11213,3,020-0801,,141.280843,39.741806,1928-09-25,2016-03-26,2,1121305
1121306,1121306,浅岸,,,11213,3,020-0803,,141.339147,39.711208,1928-09-25,2016-03-26,2,1121306
1121307,1121307,区界,,,11213,3,028-2631,,141.351352,39.65177,0000-00-00,0000-00-00,0,1121307
1121308,1121308,松草,,,11213,3,028-2631,,141.437421,39.635918,0000-00-00,0000-00-00,0,1121308
1121309,1121309,平津戸,,,11213,3,028-2633,,141.511222,39.623408,0000-00-00,0000-00-00,0,1121309
1121310,1121310,川内,,,11213,3,028-2513,,141.597548,39.640744,0000-00-00,0000-00-00,0,1121310
1121311,1121311,箱石,,,11213,3,028-2304,,141.625829,39.617115,0000-00-00,0000-00-00,0,1121311
1121312,1121312,陸中川井,,,11213,3,028-2302,,141.68153,39.597397,0000-00-00,0000-00-00,0,1121312
1121313,1121313,腹帯,,,11213,3,028-2103,,141.767434,39.604539,0000-00-00,0000-00-00,0,1121313
1121314,1120701,茂市,,,11213,3,028-2101,,141.799288,39.620619,0000-00-00,0000-00-00,0,1121314
1121315,1121315,蟇目,,,11213,3,028-2102,,141.838876,39.629341,0000-00-00,0000-00-00,0,1121315
1121316,1121316,花原市,,,11213,3,027-0046,,141.861308,39.630233,0000-00-00,0000-00-00,0,1121316
1121317,1121317,千徳,,,11213,3,027-0043,,141.9124,39.632251,0000-00-00,0000-00-00,0,1121317
1121318,1121318,宮古,,,11213,3,027-0076,,141.946454,39.640287,0000-00-00,0000-00-00,0,1121318
1121319,1121319,磯鶏,,,11213,3,027-0024,,141.960984,39.629883,0000-00-00,0000-00-00,2,1121319
1121320,1121320,津軽石,,,11213,3,027-0203,,141.937594,39.581507,0000-00-00,0000-00-00,2,1121320
1121321,1121321,豊間根,,,11213,3,028-1302,,141.924739,39.534274,0000-00-00,0000-00-00,2,1121321
1121322,1121322,陸中山田,,,11213,3,028-1342,,141.951533,39.463449,0000-00-00,0000-00-00,2,1121322
1121323,1121323,織笠,,,11213,3,028-1361,,141.959497,39.447187,0000-00-00,0000-00-00,2,1121323
1121324,1121324,岩手船越,,,11213,3,028-1371,,141.974033,39.431369,0000-00-00,0000-00-00,2,1121324
1121325,1121325,浪板海岸,,,11213,3,028-1101,,141.935104,39.383537,0000-00-00,0000-00-00,2,1121325
1121326,1121326,吉里吉里,,,11213,3,028-1101,,141.938648,39.36957,0000-00-00,0000-00-00,2,1121326
1121327,1121327,大槌,,,11213,3,028-1116,,141.902894,39.356734,0000-00-00,0000-00-00,2,1121327
1121328,1121328,鵜住居,,,11213,3,026-0301,,141.887976,39.32694,0000-00-00,0000-00-00,2,1121328
1121329,1121329,両石,,,11213,3,026-0304,,141.889112,39.308062,0000-00-00,0000-00-00,2,1121329
1121330,1120924,釜石,,,11213,3,026-0031,,141.87267,39.273321,0000-00-00,0000-00-00,2,1121330
1121401,1121401,新津,,,11214,15,956-0864,,139.121445,37.800383,0000-00-00,0000-00-00,0,1121401
1121402,1121402,京ケ瀬,,,11214,15,959-2134,,139.178322,37.817616,0000-00-00,0000-00-00,0,1121402
1121403,1121403,水原,,,11214,15,959-2002,,139.217237,37.836712,0000-00-00,0000-00-00,0,1121403
1121404,1121404,神山,,,11214,15,959-1968,,139.244691,37.862586,0000-00-00,0000-00-00,0,1121404
1121405,1121405,月岡,,,11214,15,959-2335,,139.272488,37.889334,0000-00-00,0000-00-00,0,1121405
1121406,1121406,中浦,,,11214,15,959-2331,,139.302689,37.912202,0000-00-00,0000-00-00,0,1121406
1121407,1121407,新発田,,,11214,15,957-0055,,139.335189,37.94412,0000-00-00,0000-00-00,0,1121407
1121408,1121408,加治,,,11214,15,959-2451,,139.358535,37.976411,0000-00-00,0000-00-00,0,1121408
1121409,1121409,金塚,,,11214,15,959-2477,,139.37949,38.020178,0000-00-00,0000-00-00,0,1121409
1121410,1121410,中条,,,11214,15,959-2631,,139.397541,38.049342,0000-00-00,0000-00-00,0,1121410
1121411,1121411,平木田,,,11214,15,959-2614,,139.427835,38.094338,0000-00-00,0000-00-00,0,1121411
1121412,1121412,坂町,,,11214,15,959-3132,,139.445838,38.119277,0000-00-00,0000-00-00,0,1121412
1121413,1121413,平林,,,11214,15,959-3435,,139.459045,38.150027,0000-00-00,0000-00-00,0,1121413
1121414,1121414,岩船町,,,11214,15,959-3446,,139.459643,38.183564,0000-00-00,0000-00-00,0,1121414
1121415,1121415,村上,,,11214,15,958-0854,,139.463306,38.219851,0000-00-00,0000-00-00,0,1121415
1121416,1121416,間島,,,11214,15,958-0005,,139.450229,38.273078,0000-00-00,0000-00-00,0,1121416
1121417,1121417,越後早川,,,11214,15,958-0002,,139.449887,38.316185,0000-00-00,0000-00-00,0,1121417
1121418,1121418,桑川,,,11214,15,959-3665,,139.458838,38.375162,0000-00-00,0000-00-00,0,1121418
1121419,1121419,今川,,,11214,15,959-3662,,139.468389,38.410081,0000-00-00,0000-00-00,0,1121419
1121420,1121420,越後寒川,,,11214,15,959-3653,,139.489948,38.448689,0000-00-00,0000-00-00,0,1121420
1121421,1121421,勝木,,,11214,15,959-3942,,139.517468,38.490315,0000-00-00,0000-00-00,0,1121421
1121422,1121422,府屋,,,11214,15,959-3907,,139.530452,38.513324,0000-00-00,0000-00-00,0,1121422
1121423,1121423,鼠ケ関,,,11214,6,999-7126,,139.548827,38.555433,0000-00-00,0000-00-00,0,1121423
1121424,1121424,小岩川,,,11214,6,999-7122,,139.56583,38.590399,0000-00-00,0000-00-00,0,1121424
1121425,1121425,あつみ温泉,,,11214,6,999-7205,,139.587955,38.624217,0000-00-00,0000-00-00,0,1121425
1121426,1121426,五十川,,,11214,6,999-7207,,139.616182,38.670658,0000-00-00,0000-00-00,0,1121426
1121427,1121427,小波渡,,,11214,6,999-7462,,139.649836,38.692484,0000-00-00,0000-00-00,0,1121427
1121428,1121428,三瀬,,,11214,6,999-7463,,139.673643,38.699448,0000-00-00,0000-00-00,0,1121428
1121429,1121429,羽前水沢,,,11214,6,999-7543,,139.731372,38.713444,0000-00-00,0000-00-00,0,1121429
1121430,1121430,羽前大山,,,11214,6,997-1124,,139.768194,38.742155,0000-00-00,0000-00-00,0,1121430
1121431,1121431,鶴岡,,,11214,6,997-0015,,139.83538,38.74011,0000-00-00,0000-00-00,0,1121431
1121432,1121432,藤島,,,11214,6,999-7611,,139.894087,38.768646,0000-00-00,0000-00-00,0,1121432
1121433,1121433,西袋,,,11214,6,999-7746,,139.907754,38.811528,0000-00-00,0000-00-00,0,1121433
1121434,1121434,余目,,,11214,6,999-7700,,139.911348,38.844321,0000-00-00,0000-00-00,0,1121434
1121435,1121435,北余目,,,11214,6,999-7703,,139.908074,38.867538,0000-00-00,0000-00-00,0,1121435
1121436,1121436,砂越,,,11214,6,999-6701,,139.907345,38.895195,0000-00-00,0000-00-00,0,1121436
1121437,1121437,東酒田,,,11214,6,998-0859,,139.875495,38.907518,0000-00-00,0000-00-00,0,1121437
1121438,1121438,酒田,,,11214,6,998-0023,,139.845987,38.922194,0000-00-00,0000-00-00,0,1121438
1121439,1121439,本楯,,,11214,6,999-8134,,139.882081,38.968648,0000-00-00,0000-00-00,0,1121439
1121440,1121440,南鳥海,,,11214,6,999-8421,,139.898662,38.98736,0000-00-00,0000-00-00,0,1121440
1121441,1121441,遊佐,,,11214,6,999-8301,,139.905161,39.015943,0000-00-00,0000-00-00,0,1121441
1121442,1121442,吹浦,,,11214,6,999-8521,,139.878762,39.069934,0000-00-00,0000-00-00,0,1121442
1121443,1121443,女鹿,,,11214,6,999-8521,,139.880963,39.098807,0000-00-00,0000-00-00,0,1121443
1121444,1121444,小砂川,,,11214,5,018-0143,,139.885692,39.137507,0000-00-00,0000-00-00,0,1121444
1121445,1121445,上浜,,,11214,5,018-0135,,139.902823,39.164738,0000-00-00,0000-00-00,0,1121445
1121446,1121446,象潟,,,11214,5,018-0112,,139.902205,39.2078,0000-00-00,0000-00-00,0,1121446
1121447,1121447,金浦,,,11214,5,018-0311,,139.920662,39.256183,0000-00-00,0000-00-00,0,1121447
1121448,1121448,仁賀保,,,11214,5,018-0402,,139.964596,39.28979,0000-00-00,0000-00-00,0,1121448
1121449,1121449,西目,,,11214,5,018-0604,,140.018518,39.347536,0000-00-00,0000-00-00,0,1121449
1121450,1121450,羽後本荘,,,11214,5,015-0858,,140.057632,39.386877,0000-00-00,0000-00-00,0,1121450
1121451,1121451,羽後岩谷,,,11214,5,018-0711,,140.0906,39.442075,0000-00-00,0000-00-00,0,1121451
1121452,1121452,折渡,,,11214,5,018-1225,,140.091097,39.476423,0000-00-00,0000-00-00,0,1121452
1121453,1121453,羽後亀田,,,11214,5,015-0032,,140.063032,39.493884,0000-00-00,0000-00-00,0,1121453
1121454,1121454,岩城みなと,,,11214,5,018-1301,,140.055122,39.545487,0000-00-00,0000-00-00,0,1121454
1121455,1121455,道川,,,11214,5,018-1301,,140.057049,39.56054,0000-00-00,0000-00-00,0,1121455
1121456,1121456,下浜,,,11214,5,010-1503,,140.064567,39.619678,0000-00-00,0000-00-00,0,1121456
1121457,1121457,桂根,,,11214,5,010-1501,,140.066482,39.647566,0000-00-00,0000-00-00,0,1121457
1121458,1121458,新屋,,,11214,5,010-1637,,140.087799,39.677493,0000-00-00,0000-00-00,0,1121458
1121459,1121459,羽後牛島,,,11214,5,010-0063,,140.116467,39.695834,0000-00-00,0000-00-00,0,1121459
1121460,1120228,秋田,,,11214,5,010-0001,,140.129931,39.716748,0000-00-00,0000-00-00,0,1121460
1121501,1120231,追分,,,11215,5,010-0126,,140.05781,39.809925,0000-00-00,0000-00-00,0,1121501
1121502,1121502,出戸浜,,,11215,5,010-0101,,140.024374,39.844473,0000-00-00,0000-00-00,0,1121502
1121503,1121503,上二田,,,11215,5,010-0101,,140.00409,39.869089,0000-00-00,0000-00-00,0,1121503
1121504,1121504,二田,,,11215,5,010-0101,,139.987171,39.88174,0000-00-00,0000-00-00,0,1121504
1121505,1121505,天王,,,11215,5,010-0101,,139.963609,39.898782,0000-00-00,0000-00-00,0,1121505
1121506,1121506,船越,,,11215,5,010-0341,,139.946804,39.90473,0000-00-00,0000-00-00,0,1121506
1121507,1121507,脇本,,,11215,5,010-0500,,139.902657,39.915172,0000-00-00,0000-00-00,0,1121507
1121508,1121508,羽立,,,11215,5,010-0502,,139.86205,39.904569,0000-00-00,0000-00-00,0,1121508
1121509,1121509,男鹿,,,11215,5,010-0511,,139.848647,39.884571,0000-00-00,0000-00-00,0,1121509
1121601,1123124,福島,,,11216,7,960-8031,,140.45968,37.754123,0000-00-00,0000-00-00,0,1121601
1121602,1121602,笹木野,,,11216,7,960-8057,,140.425985,37.765926,0000-00-00,0000-00-00,0,1121602
1121603,1121603,庭坂,,,11216,7,960-2261,,140.389847,37.771537,0000-00-00,0000-00-00,0,1121603
1121604,1121604,赤岩,,,11216,7,960-0251,,140.335545,37.80567,0000-00-00,0000-00-00,0,1121604
1121605,1121605,板谷,,,11216,6,992-1331,,140.268815,37.811627,0000-00-00,0000-00-00,0,1121605
1121606,1121606,峠,,,11216,6,992-1303,,140.236041,37.811935,0000-00-00,0000-00-00,0,1121606
1121607,1121607,大沢,,,11216,6,992-1203,,140.19801,37.839775,0000-00-00,0000-00-00,0,1121607
1121608,1121608,関根,,,11216,6,992-1205,,140.146284,37.864592,0000-00-00,0000-00-00,0,1121608
1121609,1121609,米沢,,,11216,6,992-0027,,140.128209,37.909478,0000-00-00,0000-00-00,0,1121609
1121610,1121610,置賜,,,11216,6,992-0112,,140.142496,37.954093,0000-00-00,0000-00-00,0,1121610
1121611,1121611,高畠,,,11216,6,999-2174,,140.15281,37.992314,0000-00-00,0000-00-00,0,1121611
1121612,1121612,赤湯,,,11216,6,999-2241,,140.148978,38.047081,0000-00-00,0000-00-00,0,1121612
1121613,1121613,中川,,,11216,6,999-2203,,140.203553,38.093349,0000-00-00,0000-00-00,0,1121613
1121614,1121614,羽前中山,,,11216,6,999-3246,,140.218318,38.124158,0000-00-00,0000-00-00,0,1121614
1121615,1121615,かみのやま温泉,,,11216,6,999-3134,,140.27867,38.152259,0000-00-00,0000-00-00,0,1121615
1121616,1121616,茂吉記念館前,,,11216,6,999-3131,,140.298167,38.171249,0000-00-00,0000-00-00,0,1121616
1121617,1121617,蔵王,,,11216,6,990-2313,,140.303299,38.20592,0000-00-00,0000-00-00,0,1121617
1121618,1121618,山形,,,11216,6,990-0039,,140.327253,38.248098,0000-00-00,0000-00-00,0,1121618
1121619,1121619,北山形,,,11216,6,990-0057,,140.332658,38.265902,0000-00-00,0000-00-00,0,1121619
1121620,1121620,羽前千歳,,,11216,6,990-0811,,140.342168,38.287313,0000-00-00,0000-00-00,0,1121620
1121621,1121621,南出羽,,,11216,6,990-2171,,140.344692,38.302834,0000-00-00,0000-00-00,0,1121621
1121622,1121622,漆山,,,11216,6,990-2161,,140.347661,38.314477,0000-00-00,0000-00-00,0,1121622
1121623,1121623,高擶,,,11216,6,994-0068,,140.358832,38.330726,0000-00-00,0000-00-00,0,1121623
1121636,1121636,天童南,,,11216,6,994-0049,,140.365853,38.342489,0000-00-00,0000-00-00,0,1121623
1121624,1121624,天童,,,11216,6,994-0034,,140.369303,38.35989,0000-00-00,0000-00-00,0,1121624
1121625,1121625,乱川,,,11216,6,994-0002,,140.374663,38.386554,0000-00-00,0000-00-00,0,1121625
1121626,1121626,神町,,,11216,6,999-3763,,140.378389,38.412276,0000-00-00,0000-00-00,0,1121626
1121627,1121627,さくらんぼ東根,,,11216,6,999-3716,,140.380677,38.42806,0000-00-00,0000-00-00,0,1121627
1121628,1121628,東根,,,11216,6,999-3701,,140.384035,38.450863,0000-00-00,0000-00-00,0,1121628
1121629,1121629,村山,,,11216,6,995-0033,,140.386399,38.477078,0000-00-00,0000-00-00,0,1121629
1121630,1121630,袖崎,,,11216,6,995-0001,,140.391295,38.548259,0000-00-00,0000-00-00,0,1121630
1121631,1121631,大石田,,,11216,6,999-4111,,140.375349,38.595916,0000-00-00,0000-00-00,0,1121631
1121632,1121632,北大石田,,,11216,6,999-4101,,140.371234,38.629487,0000-00-00,0000-00-00,0,1121632
1121633,1121633,芦沢,,,11216,6,999-4554,,140.361016,38.655258,0000-00-00,0000-00-00,0,1121633
1121634,1121634,舟形,,,11216,6,999-4600,,140.316157,38.691583,0000-00-00,0000-00-00,0,1121634
1121635,1120201,新庄,,,11216,6,996-0024,,140.306064,38.76256,0000-00-00,0000-00-00,0,1121635
1121701,1123143,仙台,,,11217,4,980-0021,,140.882158,38.260027,0000-00-00,0000-00-00,0,1121701
1121702,1121702,東照宮,,,11217,4,980-0004,,140.88682,38.277262,0000-00-00,0000-00-00,0,1121702
1121703,1121703,北仙台,,,11217,4,981-0913,,140.869885,38.281594,0000-00-00,0000-00-00,0,1121703
1121704,1121704,北山,,,11217,4,981-0931,,140.851876,38.285154,0000-00-00,0000-00-00,0,1121704
1121722,1121722,東北福祉大前,,,11217,4,981-0943,,140.842683,38.280468,0000-00-00,0000-00-00,0,1121704
1121705,1121705,国見,,,11217,4,981-0945,,140.8335,38.274783,0000-00-00,0000-00-00,0,1121705
1121706,1121706,葛岡,,,11217,4,989-3121,,140.818583,38.268816,0000-00-00,0000-00-00,0,1121706
1121707,1121707,陸前落合,,,11217,4,989-3125,,140.789896,38.273379,0000-00-00,0000-00-00,0,1121707
1121708,1121708,愛子,,,11217,4,989-3124,,140.761517,38.272661,0000-00-00,0000-00-00,0,1121708
1121709,1121709,陸前白沢,,,11217,4,989-3124,,140.702333,38.278117,0000-00-00,0000-00-00,0,1121709
1121710,1121710,熊ケ根,,,11217,4,989-3432,,140.680633,38.297947,0000-00-00,0000-00-00,0,1121710
1121711,1121711,西仙台ハイランド,,,11217,4,989-3431,,140.665373,38.304188,0000-00-00,0000-00-00,2,1121711
1121712,1121712,作並,,,11217,4,989-3431,,140.632467,38.317738,0000-00-00,0000-00-00,0,1121712
1121713,1121713,八ツ森,,,11217,4,989-3434,,140.615497,38.309041,0000-00-00,0000-00-00,2,1121713
1121714,1121714,奥新川,,,11217,4,989-3434,,140.594329,38.325953,0000-00-00,0000-00-00,0,1121714
1121715,1121715,面白山高原,,,11217,6,999-3301,,140.49712,38.333071,0000-00-00,0000-00-00,0,1121715
1121716,1121716,山寺,,,11217,6,999-3301,,140.434773,38.309561,0000-00-00,0000-00-00,0,1121716
1121717,1121717,高瀬,,,11217,6,990-2232,,140.396074,38.301677,0000-00-00,0000-00-00,0,1121717
1121718,1121718,楯山,,,11217,6,990-2221,,140.370598,38.301632,0000-00-00,0000-00-00,0,1121718
1121719,1121620,羽前千歳,,,11217,6,990-0811,,140.342168,38.287313,0000-00-00,0000-00-00,0,1121719
1121720,1121619,北山形,,,11217,6,990-0057,,140.332658,38.265902,0000-00-00,0000-00-00,0,1121720
1121721,1121618,山形,,,11217,6,990-0039,,140.327253,38.248098,0000-00-00,0000-00-00,0,1121721
1121801,1121618,山形,,,11218,6,990-0039,,140.327253,38.248098,0000-00-00,0000-00-00,0,1121801
1121802,1121619,北山形,,,11218,6,990-0057,,140.332658,38.265902,0000-00-00,0000-00-00,0,1121802
1121803,1121803,東金井,,,11218,6,990-0864,,140.302666,38.277058,0000-00-00,0000-00-00,0,1121803
1121804,1121804,羽前山辺,,,11218,6,990-0300,,140.271571,38.294756,0000-00-00,0000-00-00,0,1121804
1121805,1121805,羽前金沢,,,11218,6,990-0400,,140.270516,38.320837,0000-00-00,0000-00-00,0,1121805
1121806,1121806,羽前長崎,,,11218,6,990-0400,,140.273018,38.332969,0000-00-00,0000-00-00,0,1121806
1121807,1121807,南寒河江,,,11218,6,991-0043,,140.27767,38.356033,0000-00-00,0000-00-00,0,1121807
1121808,1121808,寒河江,,,11218,6,991-0031,,140.274487,38.372548,0000-00-00,0000-00-00,0,1121808
1121809,1121809,西寒河江,,,11218,6,991-0024,,140.26662,38.379627,0000-00-00,0000-00-00,0,1121809
1121810,1121810,羽前高松,,,11218,6,990-0523,,140.248666,38.397494,0000-00-00,0000-00-00,0,1121810
1121811,1121811,柴橋,,,11218,6,991-0063,,140.22582,38.380874,0000-00-00,0000-00-00,0,1121811
1121812,1121812,左沢,,,11218,6,991-0801,,140.208132,38.382223,0000-00-00,0000-00-00,0,1121812
1121901,1121609,米沢,,,11219,6,992-0027,,140.128209,37.909478,0000-00-00,0000-00-00,0,1121901
1121902,1121902,南米沢,,,11219,6,992-0037,,140.108364,37.896043,0000-00-00,0000-00-00,0,1121902
1121903,1121903,西米沢,,,11219,6,992-0056,,140.08481,37.917279,0000-00-00,0000-00-00,0,1121903
1121904,1121904,成島,,,11219,6,992-0083,,140.075584,37.94335,0000-00-00,0000-00-00,0,1121904
1121905,1121905,中郡,,,11219,6,999-0144,,140.067286,37.969109,0000-00-00,0000-00-00,0,1121905
1121906,1121906,羽前小松,,,11219,6,999-0121,,140.048503,38.004721,0000-00-00,0000-00-00,0,1121906
1121907,1121907,犬川,,,11219,6,999-0133,,140.052038,38.025333,0000-00-00,0000-00-00,0,1121907
1121908,1121908,今泉,,,11219,6,993-0033,,140.04412,38.056697,0000-00-00,0000-00-00,0,1121908
1121909,1121909,萩生,,,11219,6,999-0602,,140.004207,38.06182,0000-00-00,0000-00-00,0,1121909
1121910,1121910,羽前椿,,,11219,6,999-0604,,139.994293,38.038636,0000-00-00,0000-00-00,0,1121910
1121911,1121911,手ノ子,,,11219,6,999-1111,,139.961264,38.011766,0000-00-00,0000-00-00,0,1121911
1121912,1121912,羽前沼沢,,,11219,6,999-1505,,139.872497,38.028698,0000-00-00,0000-00-00,0,1121912
1121913,1121913,伊佐領,,,11219,6,999-1322,,139.822635,38.05105,0000-00-00,0000-00-00,0,1121913
1121914,1121914,羽前松岡,,,11219,6,999-1324,,139.780445,38.045391,0000-00-00,0000-00-00,0,1121914
1121915,1121915,小国,,,11219,6,999-1352,,139.750167,38.061422,0000-00-00,0000-00-00,0,1121915
1121916,1121916,越後金丸,,,11219,15,959-3228,,139.663521,38.066474,0000-00-00,0000-00-00,0,1121916
1121917,1121917,越後片貝,,,11219,15,959-3226,,139.62239,38.070712,0000-00-00,0000-00-00,0,1121917
1121918,1121918,越後下関,,,11219,15,959-3265,,139.560024,38.090037,0000-00-00,0000-00-00,0,1121918
1121919,1121919,越後大島,,,11219,15,959-3241,,139.518209,38.099721,0000-00-00,0000-00-00,0,1121919
1121920,1121412,坂町,,,11219,15,959-3132,,139.445838,38.119277,0000-00-00,0000-00-00,0,1121920
1122001,1120201,新庄,,,11220,6,996-0024,,140.306064,38.76256,0000-00-00,0000-00-00,0,1122001
1122002,1122002,升形,,,11220,6,996-0111,,140.24423,38.751646,0000-00-00,0000-00-00,0,1122002
1122003,1122003,羽前前波,,,11220,6,996-0111,,140.209525,38.747654,0000-00-00,0000-00-00,0,1122003
1122004,1122004,津谷,,,11220,6,999-6311,,140.186375,38.737618,0000-00-00,0000-00-00,0,1122004
1122005,1122005,古口,,,11220,6,999-6801,,140.14602,38.737129,0000-00-00,0000-00-00,0,1122005
1122006,1122006,高屋,,,11220,6,999-6401,,140.070936,38.752567,0000-00-00,0000-00-00,0,1122006
1122007,1122007,清川,,,11220,6,999-6606,,140.020761,38.790152,0000-00-00,0000-00-00,0,1122007
1122008,1122008,狩川,,,11220,6,999-6601,,139.976777,38.79367,0000-00-00,0000-00-00,0,1122008
1122009,1122009,南野,,,11220,6,999-7727,,139.944742,38.81813,0000-00-00,0000-00-00,0,1122009
1122010,1121434,余目,,,11220,6,999-7700,,139.911348,38.844321,0000-00-00,0000-00-00,0,1122010
1122101,1123156,小牛田,,,11221,4,987-0001,,141.064355,38.541111,0000-00-00,0000-00-00,0,1122101
1122102,1122102,北浦,,,11221,4,987-0000,,141.02305,38.55985,0000-00-00,0000-00-00,0,1122102
1122103,1122103,陸前谷地,,,11221,4,987-0000,,140.999453,38.565152,0000-00-00,0000-00-00,0,1122103
1122104,1122104,古川,,,11221,4,989-6162,,140.967876,38.571192,0000-00-00,0000-00-00,0,1122104
1122105,1122105,塚目,,,11221,4,989-6225,,140.937093,38.572474,0000-00-00,0000-00-00,0,1122105
1122106,1122106,西古川,,,11221,4,989-6214,,140.895416,38.578214,0000-00-00,0000-00-00,0,1122106
1122107,1122107,東大崎,,,11221,4,989-6227,,140.897015,38.605627,0000-00-00,0000-00-00,0,1122107
1122108,1122108,西大崎,,,11221,4,989-6412,,140.889638,38.629986,0000-00-00,0000-00-00,0,1122108
1122109,1122109,岩出山,,,11221,4,989-6415,,140.871492,38.652508,0000-00-00,0000-00-00,0,1122109
1122110,1122110,有備館,,,11221,4,989-6433,,140.86442,38.658135,0000-00-00,0000-00-00,0,1122110
1122111,1122111,上野目,,,11221,4,989-6404,,140.859342,38.680563,0000-00-00,0000-00-00,0,1122111
1122112,1122112,池月,,,11221,4,989-6405,,140.835732,38.708948,0000-00-00,0000-00-00,0,1122112
1122113,1122113,川渡温泉,,,11221,4,989-6712,,140.779317,38.736834,0000-00-00,0000-00-00,0,1122113
1122114,1122114,鳴子御殿湯,,,11221,4,989-6811,,140.737148,38.744612,0000-00-00,0000-00-00,0,1122114
1122115,1122115,鳴子温泉,,,11221,4,989-6823,,140.715939,38.743193,0000-00-00,0000-00-00,0,1122115
1122116,1122116,中山平温泉,,,11221,4,989-6832,,140.668103,38.726568,0000-00-00,0000-00-00,0,1122116
1122117,1122117,堺田,,,11221,6,999-6106,,140.612902,38.73549,0000-00-00,0000-00-00,0,1122117
1122118,1122118,赤倉温泉,,,11221,6,999-6105,,140.553647,38.730535,0000-00-00,0000-00-00,0,1122118
1122119,1122119,立小路,,,11221,6,999-6100,,140.542678,38.742045,0000-00-00,0000-00-00,0,1122119
1122120,1122120,最上,,,11221,6,999-6101,,140.517712,38.755959,0000-00-00,0000-00-00,0,1122120
1122121,1122121,大堀,,,11221,6,999-6212,,140.475377,38.76592,0000-00-00,0000-00-00,0,1122121
1122122,1122122,鵜杉,,,11221,6,999-6212,,140.453698,38.764962,0000-00-00,0000-00-00,0,1122122
1122123,1122123,瀬見温泉,,,11221,6,999-6211,,140.419557,38.755192,0000-00-00,0000-00-00,0,1122123
1122124,1122124,東長沢,,,11221,6,999-4605,,140.382195,38.718898,0000-00-00,0000-00-00,0,1122124
1122125,1122125,長沢,,,11221,6,999-4605,,140.365969,38.709782,0000-00-00,0000-00-00,0,1122125
1122126,1122126,南新庄,,,11221,6,996-0041,,140.316212,38.721629,0000-00-00,0000-00-00,0,1122126
1122127,1120201,新庄,,,11221,6,996-0024,,140.306064,38.76256,0000-00-00,0000-00-00,0,1122127
1122201,1122201,あおば通,,,11222,4,980-0021,,140.878514,38.260749,0000-00-00,0000-00-00,0,1122201
1122202,1123143,仙台,,,11222,4,980-0021,,140.882158,38.260027,0000-00-00,0000-00-00,0,1122202
1122203,1122203,榴ケ岡,,,11222,4,983-0852,,140.893782,38.258792,0000-00-00,0000-00-00,0,1122203
1122204,1122204,宮城野原,,,11222,4,983-0045,,140.905155,38.26115,0000-00-00,0000-00-00,0,1122204
1122205,1122205,陸前原ノ町,,,11222,4,983-0842,,140.910638,38.266017,0000-00-00,0000-00-00,0,1122205
1122206,1122206,苦竹,,,11222,4,983-0036,,140.918867,38.268722,0000-00-00,0000-00-00,0,1122206
1122207,1122207,小鶴新田,,,11222,4,983-0036,,140.935446,38.273455,0000-00-00,0000-00-00,0,1122207
1122208,1122208,福田町,,,11222,4,983-0023,,140.958252,38.274967,0000-00-00,0000-00-00,0,1122208
1122209,1122209,陸前高砂,,,11222,4,983-0005,,140.967607,38.27344,0000-00-00,0000-00-00,0,1122209
1122210,1122210,中野栄,,,11222,4,983-0011,,140.985236,38.280796,0000-00-00,0000-00-00,0,1122210
1122211,1122211,多賀城,,,11222,4,985-0873,,141.005375,38.291656,0000-00-00,0000-00-00,0,1122211
1122212,1122212,下馬,,,11222,4,985-0835,,141.014965,38.305833,0000-00-00,0000-00-00,0,1122212
1122213,1122213,西塩釜,,,11222,4,985-0024,,141.018419,38.31194,0000-00-00,0000-00-00,0,1122213
1122214,1122214,本塩釜,,,11222,4,985-0002,,141.022477,38.317715,0000-00-00,0000-00-00,0,1122214
1122215,1122215,東塩釜,,,11222,4,985-0004,,141.031665,38.325572,0000-00-00,0000-00-00,0,1122215
1122216,1122216,陸前浜田,,,11222,4,981-0100,,141.041818,38.350747,0000-00-00,0000-00-00,0,1122216
1122217,1122217,松島海岸,,,11222,4,981-0200,,141.058523,38.368529,0000-00-00,0000-00-00,0,1122217
1122218,1122218,高城町,,,11222,4,981-0215,,141.07344,38.382731,0000-00-00,0000-00-00,0,1122218
1122219,1122219,手樽,,,11222,4,981-0211,,141.092846,38.38715,0000-00-00,0000-00-00,0,1122219
1122220,1122220,陸前富山,,,11222,4,981-0211,,141.107208,38.386307,0000-00-00,0000-00-00,0,1122220
1122221,1122221,陸前大塚,,,11222,4,981-0414,,141.12947,38.379078,0000-00-00,0000-00-00,0,1122221
1122222,1122222,東名,,,11222,4,981-0414,,141.14548,38.37529956,0000-00-00,0000-00-00,0,1122222
1122223,1122223,野蒜,,,11222,4,981-0411,,141.1570349,38.3790003,0000-00-00,0000-00-00,0,1122223
1122224,1122224,陸前小野,,,11222,4,981-0301,,141.174345,38.396018,0000-00-00,0000-00-00,0,1122224
1122225,1122225,鹿妻,,,11222,4,981-0500,,141.190073,38.403315,0000-00-00,0000-00-00,0,1122225
1122226,1122226,矢本,,,11222,4,981-0503,,141.209148,38.420432,0000-00-00,0000-00-00,0,1122226
1122227,1122227,東矢本,,,11222,4,981-0503,,141.22216,38.427993,0000-00-00,0000-00-00,0,1122227
1122228,1122228,陸前赤井,,,11222,4,981-0501,,141.238883,38.432442,0000-00-00,0000-00-00,0,1122228
1122232,1122232,石巻あゆみ野,,,11222,4,986-0853,,141.259444,38.436111,2016-03-26,0000-00-00,0,1122228
1122229,1122229,蛇田,,,11222,4,986-0861,,141.277652,38.438218,0000-00-00,0000-00-00,0,1122229
1122230,1122230,陸前山下,,,11222,4,986-0877,,141.288868,38.437718,0000-00-00,0000-00-00,0,1122230
1122231,1122231,石巻,,,11222,4,986-0826,,141.303553,38.43538,0000-00-00,0000-00-00,0,1122231
1122301,1123156,小牛田,,,11223,4,987-0001,,141.064355,38.541111,0000-00-00,0000-00-00,0,1122301
1122302,1122302,上涌谷,,,11223,4,987-0133,,141.099473,38.549194,0000-00-00,0000-00-00,0,1122302
1122303,1122303,涌谷,,,11223,4,987-0114,,141.127359,38.538151,0000-00-00,0000-00-00,0,1122303
1122304,1122304,前谷地,,,11223,4,987-1101,,141.194345,38.512187,0000-00-00,0000-00-00,0,1122304
1122305,1122305,佳景山,,,11223,4,986-1111,,141.239622,38.497974,0000-00-00,0000-00-00,0,1122305
1122306,1122306,鹿又,,,11223,4,986-1111,,141.283016,38.485851,0000-00-00,0000-00-00,0,1122306
1122307,1122307,曽波神,,,11223,4,986-1111,,141.287848,38.465993,0000-00-00,0000-00-00,0,1122307
1122308,1122231,石巻,,,11223,4,986-0826,,141.303553,38.43538,0000-00-00,0000-00-00,0,1122308
1122309,1122309,陸前稲井,,,11223,4,986-0003,,141.334847,38.445463,0000-00-00,0000-00-00,0,1122309
1122310,1122310,渡波,,,11223,4,986-2121,,141.365123,38.420051,0000-00-00,0000-00-00,0,1122310
1122311,1122311,万石浦,,,11223,4,986-2103,,141.368555,38.428855,0000-00-00,0000-00-00,0,1122311
1122312,1122312,沢田,,,11223,4,986-2102,,141.38234,38.432397,0000-00-00,0000-00-00,0,1122312
1122313,1122313,浦宿,,,11223,4,986-2231,,141.421355,38.436542,0000-00-00,0000-00-00,0,1122313
1122314,1122314,女川,,,11223,4,986-2261,,141.444919,38.446403,0000-00-00,0000-00-00,0,1122314
1122401,1122304,前谷地,,,11224,4,987-1101,,141.194345,38.512187,0000-00-00,0000-00-00,0,1122401
1122402,1122402,和渕,,,11224,4,987-1102,,141.220428,38.525772,0000-00-00,0000-00-00,0,1122402
1122403,1122403,のの岳,,,11224,4,987-0284,,141.225813,38.552567,0000-00-00,0000-00-00,0,1122403
1122404,1122404,陸前豊里,,,11224,4,987-0366,,141.244674,38.582481,0000-00-00,0000-00-00,0,1122404
1122405,1122405,御岳堂,,,11224,4,987-0341,,141.264718,38.605662,0000-00-00,0000-00-00,0,1122405
1122406,1122406,柳津,,,11224,4,987-0500,,141.305947,38.611693,0000-00-00,0000-00-00,0,1122406
1122407,1122407,陸前横山,,,11224,4,986-0402,,141.353981,38.630776,0000-00-00,2020-04-01,2,1122407
1122408,1122408,陸前戸倉,,,11224,4,986-0781,,141.43338,38.647977,0000-00-00,2020-04-01,2,1122408
1122409,1122409,志津川,,,11224,4,986-0767,,141.442894,38.678113,0000-00-00,2020-04-01,2,1122409
1122410,1122410,清水浜,,,11224,4,986-0706,,141.486798,38.690418,0000-00-00,2020-04-01,2,1122410
1122411,1122411,歌津,,,11224,4,988-0453,,141.519263,38.717661,0000-00-00,2020-04-01,2,1122411
1122412,1122412,陸前港,,,11224,4,988-0402,,141.530859,38.738559,0000-00-00,2020-04-01,2,1122412
1122413,1122413,蔵内,,,11224,4,988-0324,,141.524214,38.753952,0000-00-00,2020-04-01,2,1122413
1122414,1122414,陸前小泉,,,11224,4,988-0332,,141.509068,38.766786,0000-00-00,2020-04-01,2,1122414
1122415,1122415,本吉,,,11224,4,988-0309,,141.501937,38.786042,0000-00-00,2020-04-01,2,1122415
1122416,1122416,小金沢,,,11224,4,988-0272,,141.534755,38.795686,0000-00-00,2020-04-01,2,1122416
1122417,1122417,大谷海岸,,,11224,4,988-0273,,141.566927,38.813901,0000-00-00,2020-04-01,2,1122417
1122418,1122418,陸前階上,,,11224,4,988-0233,,141.580339,38.837113,0000-00-00,2020-04-01,2,1122418
1122419,1122419,最知,,,11224,4,988-0211,,141.581382,38.853516,0000-00-00,2020-04-01,2,1122419
1122420,1122420,松岩,,,11224,4,988-0113,,141.583768,38.873369,0000-00-00,2020-04-01,2,1122420
1122421,1122421,南気仙沼,,,11224,4,988-0024,,141.576753,38.894816,0000-00-00,2020-04-01,2,1122421
1122422,1122422,不動の沢,,,11224,4,988-0063,,141.56236,38.898519,0000-00-00,2020-04-01,2,1122422
1122423,1120814,気仙沼,,,11224,4,988-0077,,141.558893,38.910031,0000-00-00,2020-04-01,2,1122423
